{
"type": "FeatureCollection",
"crs": { "type": "name", "properties": { "name": "urn:ogc:def:crs:OGC:1.3:CRS84" } },
"features": [
{ "type": "Feature", "properties": { "name": "新市水位站(旋轉鏡頭)", "DivID": "CCTV3", "DivSrc": "https://fmg.wra.gov.tw/FMGP/SingeView?sn=3&ft=C&ht=0", "OpenName": "新市水位站", "OpenSrc": "https://fmg.wra.gov.tw/fmgp/ccd_proxy?sn=3", "provider": "水利署自建站" }, "geometry": { "type": "Point", "coordinates": [ 120.276336, 23.057886 ] } },
{ "type": "Feature", "properties": { "name": "翡翠水庫_1(旁收北市府)", "DivID": "CCTV5", "DivSrc": "https://fmg.wra.gov.tw/FMGP/SingeView?sn=5&ft=C&ht=0", "OpenName": "翡翠水庫(北市府提供)", "OpenSrc": null, "provider": "水利署自建站" }, "geometry": { "type": "Point", "coordinates": [ 121.57514, 24.90899 ] } },
{ "type": "Feature", "properties": { "name": "翡翠水庫_2(旁收北市府)", "DivID": "CCTV6", "DivSrc": "https://fmg.wra.gov.tw/FMGP/SingeView?sn=6&ft=C&ht=0", "OpenName": "翡翠水庫(北市府提供)", "OpenSrc": null, "provider": "水利署自建站" }, "geometry": { "type": "Point", "coordinates": [ 121.57514, 24.90899 ] } },
{ "type": "Feature", "properties": { "name": "翡翠水庫_3(旁收北市府)", "DivID": "CCTV7", "DivSrc": "https://fmg.wra.gov.tw/FMGP/SingeView?sn=7&ft=C&ht=0", "OpenName": "翡翠水庫(北市府提供)", "OpenSrc": null, "provider": "水利署自建站" }, "geometry": { "type": "Point", "coordinates": [ 121.57514, 24.90899 ] } },
{ "type": "Feature", "properties": { "name": "翡翠水庫_水尺(旁收北市府)", "DivID": "CCTV8", "DivSrc": "https://fmg.wra.gov.tw/FMGP/SingeView?sn=8&ft=C&ht=0", "OpenName": "翡翠水庫(北市府提供)", "OpenSrc": null, "provider": "水利署自建站" }, "geometry": { "type": "Point", "coordinates": [ 121.57514, 24.90899 ] } },
{ "type": "Feature", "properties": { "name": "北埔安檢所_1", "DivID": "CCTV9", "DivSrc": "https://fmg.wra.gov.tw/FMGP/SingeView?sn=9&ft=C&ht=0", "OpenName": "北埔安檢所", "OpenSrc": "https://fmg.wra.gov.tw/fmgp/ccd_proxy?sn=9", "provider": "水利署自建站" }, "geometry": { "type": "Point", "coordinates": [ 121.62241, 24.04148 ] } },
{ "type": "Feature", "properties": { "name": "北埔安檢所_2", "DivID": "CCTV10", "DivSrc": "https://fmg.wra.gov.tw/FMGP/SingeView?sn=10&ft=C&ht=0", "OpenName": "北埔安檢所", "OpenSrc": "https://fmg.wra.gov.tw/fmgp/ccd_proxy?sn=10", "provider": "水利署自建站" }, "geometry": { "type": "Point", "coordinates": [ 121.62241, 24.04148 ] } },
{ "type": "Feature", "properties": { "name": "北埔安檢所_3", "DivID": "CCTV11", "DivSrc": "https://fmg.wra.gov.tw/FMGP/SingeView?sn=11&ft=C&ht=0", "OpenName": "北埔安檢所", "OpenSrc": "https://fmg.wra.gov.tw/fmgp/ccd_proxy?sn=11", "provider": "水利署自建站" }, "geometry": { "type": "Point", "coordinates": [ 121.62241, 24.04148 ] } },
{ "type": "Feature", "properties": { "name": "北埔安檢所_4", "DivID": "CCTV12", "DivSrc": "https://fmg.wra.gov.tw/FMGP/SingeView?sn=12&ft=C&ht=0", "OpenName": "北埔安檢所", "OpenSrc": null, "provider": "水利署自建站" }, "geometry": { "type": "Point", "coordinates": [ 121.62241, 24.04148 ] } },
{ "type": "Feature", "properties": { "name": "石門水庫_水尺(介接北水局)", "DivID": "CCTV13", "DivSrc": "https://fmg.wra.gov.tw/FMGP/SingeView?sn=13&ft=C&ht=0", "OpenName": "石門水庫(介接北水局)", "OpenSrc": null, "provider": "水利署自建站" }, "geometry": { "type": "Point", "coordinates": [ 121.23989, 24.81307 ] } },
{ "type": "Feature", "properties": { "name": "曾文水庫_1(旁收南水局)", "DivID": "CCTV14", "DivSrc": "https://fmg.wra.gov.tw/FMGP/SingeView?sn=14&ft=C&ht=0", "OpenName": "曾文水庫(南水局提供)", "OpenSrc": "https://fmg.wra.gov.tw/fmgp/ccd_proxy?sn=14", "provider": "水利署自建站" }, "geometry": { "type": "Point", "coordinates": [ 120.536936, 23.250597 ] } },
{ "type": "Feature", "properties": { "name": "曾文水庫_2(旁收南水局)", "DivID": "CCTV15", "DivSrc": "https://fmg.wra.gov.tw/FMGP/SingeView?sn=15&ft=C&ht=0", "OpenName": "曾文水庫(南水局提供)", "OpenSrc": "https://fmg.wra.gov.tw/fmgp/ccd_proxy?sn=15", "provider": "水利署自建站" }, "geometry": { "type": "Point", "coordinates": [ 120.536936, 23.250597 ] } },
{ "type": "Feature", "properties": { "name": "曾文水庫第2組_1(旁收南水局)", "DivID": "CCTV18", "DivSrc": "https://fmg.wra.gov.tw/FMGP/SingeView?sn=18&ft=C&ht=0", "OpenName": "曾文水庫(南水局提供)", "OpenSrc": "https://fmg.wra.gov.tw/fmgp/ccd_proxy?sn=18", "provider": "水利署自建站" }, "geometry": { "type": "Point", "coordinates": [ 120.536936, 23.250597 ] } },
{ "type": "Feature", "properties": { "name": "曾文水庫第2組_3(旁收南水局)", "DivID": "CCTV20", "DivSrc": "https://fmg.wra.gov.tw/FMGP/SingeView?sn=20&ft=C&ht=0", "OpenName": "曾文水庫(南水局提供)", "OpenSrc": "https://fmg.wra.gov.tw/fmgp/ccd_proxy?sn=20", "provider": "水利署自建站" }, "geometry": { "type": "Point", "coordinates": [ 120.536936, 23.250597 ] } },
{ "type": "Feature", "properties": { "name": "曾文水庫第2組_4(旁收南水局)", "DivID": "CCTV21", "DivSrc": "https://fmg.wra.gov.tw/FMGP/SingeView?sn=21&ft=C&ht=0", "OpenName": "曾文水庫(南水局提供)", "OpenSrc": "https://fmg.wra.gov.tw/fmgp/ccd_proxy?sn=21", "provider": "水利署自建站" }, "geometry": { "type": "Point", "coordinates": [ 120.536936, 23.250597 ] } },
{ "type": "Feature", "properties": { "name": "直潭壩_(旋轉)", "DivID": "CCTV22", "DivSrc": "https://fmg.wra.gov.tw/FMGP/SingeView?sn=22&ft=C&ht=0", "OpenName": "直潭壩", "OpenSrc": "https://fmg.wra.gov.tw/fmgp/ccd_proxy?sn=22", "provider": "水利署自建站" }, "geometry": { "type": "Point", "coordinates": [ 121.52703, 24.94265 ] } },
{ "type": "Feature", "properties": { "name": "直潭壩_上游鏡頭", "DivID": "CCTV23", "DivSrc": "https://fmg.wra.gov.tw/FMGP/SingeView?sn=23&ft=C&ht=0", "OpenName": "直潭壩", "OpenSrc": "https://fmg.wra.gov.tw/fmgp/ccd_proxy?sn=23", "provider": "水利署自建站" }, "geometry": { "type": "Point", "coordinates": [ 121.52703, 24.94265 ] } },
{ "type": "Feature", "properties": { "name": "鳶山堰_上游(旋轉)", "DivID": "CCTV24", "DivSrc": "https://fmg.wra.gov.tw/FMGP/SingeView?sn=24&ft=C&ht=0", "OpenName": "鳶山堰", "OpenSrc": "https://fmg.wra.gov.tw/fmgp/ccd_proxy?sn=24", "provider": "水利署自建站" }, "geometry": { "type": "Point", "coordinates": [ 121.33313, 24.92404 ] } },
{ "type": "Feature", "properties": { "name": "鳶山堰_下游(旋轉)", "DivID": "CCTV25", "DivSrc": "https://fmg.wra.gov.tw/FMGP/SingeView?sn=25&ft=C&ht=0", "OpenName": "鳶山堰", "OpenSrc": "https://fmg.wra.gov.tw/fmgp/ccd_proxy?sn=25", "provider": "水利署自建站" }, "geometry": { "type": "Point", "coordinates": [ 121.33313, 24.92404 ] } },
{ "type": "Feature", "properties": { "name": "玉峰大橋(旋轉)", "DivID": "CCTV26", "DivSrc": "https://fmg.wra.gov.tw/FMGP/SingeView?sn=26&ft=C&ht=0", "OpenName": "玉峰大橋", "OpenSrc": "https://fmg.wra.gov.tw/fmgp/ccd_proxy?sn=26", "provider": "水利署自建站" }, "geometry": { "type": "Point", "coordinates": [ 120.84859, 23.81108 ] } },
{ "type": "Feature", "properties": { "name": "玉峰大橋(固)", "DivID": "CCTV27", "DivSrc": "https://fmg.wra.gov.tw/FMGP/SingeView?sn=27&ft=C&ht=0", "OpenName": "玉峰大橋", "OpenSrc": "https://fmg.wra.gov.tw/fmgp/ccd_proxy?sn=27", "provider": "水利署自建站" }, "geometry": { "type": "Point", "coordinates": [ 120.84859, 23.81108 ] } },
{ "type": "Feature", "properties": { "name": "平和橋", "DivID": "CCTV28", "DivSrc": "https://fmg.wra.gov.tw/FMGP/SingeView?sn=28&ft=C&ht=0", "OpenName": "平和橋", "OpenSrc": "https://fmg.wra.gov.tw/fmgp/ccd_proxy?sn=28", "provider": "水利署自建站" }, "geometry": { "type": "Point", "coordinates": [ 120.3800916, 23.066983 ] } },
{ "type": "Feature", "properties": { "name": "平和橋(固)", "DivID": "CCTV29", "DivSrc": "https://fmg.wra.gov.tw/FMGP/SingeView?sn=29&ft=C&ht=0", "OpenName": "平和橋", "OpenSrc": "https://fmg.wra.gov.tw/fmgp/ccd_proxy?sn=29", "provider": "水利署自建站" }, "geometry": { "type": "Point", "coordinates": [ 120.3800916, 23.066983 ] } },
{ "type": "Feature", "properties": { "name": "渡頭堤防_轉動", "DivID": "CCTV30", "DivSrc": "https://fmg.wra.gov.tw/FMGP/SingeView?sn=30&ft=C&ht=0", "OpenName": "渡頭堤防", "OpenSrc": "https://fmg.wra.gov.tw/fmgp/ccd_proxy?sn=30", "provider": "水利署自建站" }, "geometry": { "type": "Point", "coordinates": [ 120.327986, 23.165894 ] } },
{ "type": "Feature", "properties": { "name": "渡頭堤防_固定", "DivID": "CCTV31", "DivSrc": "https://fmg.wra.gov.tw/FMGP/SingeView?sn=31&ft=C&ht=0", "OpenName": "渡頭堤防", "OpenSrc": "https://fmg.wra.gov.tw/fmgp/ccd_proxy?sn=31", "provider": "水利署自建站" }, "geometry": { "type": "Point", "coordinates": [ 120.327986, 23.165894 ] } },
{ "type": "Feature", "properties": { "name": "湳仔溝抽水站(固)", "DivID": "CCTV32", "DivSrc": "https://fmg.wra.gov.tw/FMGP/SingeView?sn=32&ft=C&ht=0", "OpenName": "湳仔溝抽水站", "OpenSrc": null, "provider": "水利署自建站" }, "geometry": { "type": "Point", "coordinates": [ 121.44684, 25.02074 ] } },
{ "type": "Feature", "properties": { "name": "湳仔溝抽水站(旋轉)", "DivID": "CCTV33", "DivSrc": "https://fmg.wra.gov.tw/FMGP/SingeView?sn=33&ft=C&ht=0", "OpenName": "湳仔溝抽水站", "OpenSrc": null, "provider": "水利署自建站" }, "geometry": { "type": "Point", "coordinates": [ 121.44684, 25.02074 ] } },
{ "type": "Feature", "properties": { "name": "基隆河成美橋(固)", "DivID": "CCTV40", "DivSrc": "https://fmg.wra.gov.tw/FMGP/SingeView?sn=40&ft=C&ht=0", "OpenName": "基隆河成美橋", "OpenSrc": "https://fmg.wra.gov.tw/fmgp/ccd_proxy?sn=40", "provider": "水利署自建站" }, "geometry": { "type": "Point", "coordinates": [ 121.5825638, 25.052816 ] } },
{ "type": "Feature", "properties": { "name": "基隆河成美橋(旋轉)", "DivID": "CCTV41", "DivSrc": "https://fmg.wra.gov.tw/FMGP/SingeView?sn=41&ft=C&ht=0", "OpenName": "基隆河成美橋", "OpenSrc": "https://fmg.wra.gov.tw/fmgp/ccd_proxy?sn=41", "provider": "水利署自建站" }, "geometry": { "type": "Point", "coordinates": [ 121.5825638, 25.052816 ] } },
{ "type": "Feature", "properties": { "name": "土城抽水站(固)", "DivID": "CCTV44", "DivSrc": "https://fmg.wra.gov.tw/FMGP/SingeView?sn=44&ft=C&ht=0", "OpenName": "土城抽水站", "OpenSrc": null, "provider": "水利署自建站" }, "geometry": { "type": "Point", "coordinates": [ 121.4384083, 24.98106 ] } },
{ "type": "Feature", "properties": { "name": "土城抽水站(旋轉)", "DivID": "CCTV45", "DivSrc": "https://fmg.wra.gov.tw/FMGP/SingeView?sn=45&ft=C&ht=0", "OpenName": "土城抽水站", "OpenSrc": null, "provider": "水利署自建站" }, "geometry": { "type": "Point", "coordinates": [ 121.4384083, 24.98106 ] } },
{ "type": "Feature", "properties": { "name": "二重疏洪道(旋轉鏡頭)", "DivID": "CCTV48", "DivSrc": "https://fmg.wra.gov.tw/FMGP/SingeView?sn=48&ft=C&ht=0", "OpenName": "二重疏洪道", "OpenSrc": "https://fmg.wra.gov.tw/fmgp/ccd_proxy?sn=48", "provider": "水利署自建站" }, "geometry": { "type": "Point", "coordinates": [ 121.485905, 25.0481138 ] } },
{ "type": "Feature", "properties": { "name": "二重疏洪道(固)", "DivID": "CCTV49", "DivSrc": "https://fmg.wra.gov.tw/FMGP/SingeView?sn=49&ft=C&ht=0", "OpenName": "二重疏洪道", "OpenSrc": "https://fmg.wra.gov.tw/fmgp/ccd_proxy?sn=49", "provider": "水利署自建站" }, "geometry": { "type": "Point", "coordinates": [ 121.485905, 25.0481138 ] } },
{ "type": "Feature", "properties": { "name": "景福河濱公園(旋轉)", "DivID": "CCTV50", "DivSrc": "https://fmg.wra.gov.tw/FMGP/SingeView?sn=50&ft=C&ht=0", "OpenName": "景福河濱公園", "OpenSrc": "https://fmg.wra.gov.tw/fmgp/ccd_proxy?sn=50", "provider": "水利署自建站" }, "geometry": { "type": "Point", "coordinates": [ 121.534716, 24.99519 ] } },
{ "type": "Feature", "properties": { "name": "景福河濱公園(固定)", "DivID": "CCTV51", "DivSrc": "https://fmg.wra.gov.tw/FMGP/SingeView?sn=51&ft=C&ht=0", "OpenName": "景福河濱公園", "OpenSrc": "https://fmg.wra.gov.tw/fmgp/ccd_proxy?sn=51", "provider": "水利署自建站" }, "geometry": { "type": "Point", "coordinates": [ 121.534716, 24.99519 ] } },
{ "type": "Feature", "properties": { "name": "五股獅子頭(旋)", "DivID": "CCTV52", "DivSrc": "https://fmg.wra.gov.tw/FMGP/SingeView?sn=52&ft=C&ht=0", "OpenName": "獅子頭", "OpenSrc": "https://fmg.wra.gov.tw/fmgp/ccd_proxy?sn=52", "provider": "水利署自建站" }, "geometry": { "type": "Point", "coordinates": [ 121.458361, 25.112648 ] } },
{ "type": "Feature", "properties": { "name": "五股獅子頭(固)", "DivID": "CCTV53", "DivSrc": "https://fmg.wra.gov.tw/FMGP/SingeView?sn=53&ft=C&ht=0", "OpenName": "獅子頭", "OpenSrc": "https://fmg.wra.gov.tw/fmgp/ccd_proxy?sn=53", "provider": "水利署自建站" }, "geometry": { "type": "Point", "coordinates": [ 121.458361, 25.112648 ] } },
{ "type": "Feature", "properties": { "name": "寶橋水位站(旋)", "DivID": "CCTV54", "DivSrc": "https://fmg.wra.gov.tw/FMGP/SingeView?sn=54&ft=C&ht=0", "OpenName": "寶橋", "OpenSrc": "https://fmg.wra.gov.tw/fmgp/ccd_proxy?sn=54", "provider": "水利署自建站" }, "geometry": { "type": "Point", "coordinates": [ 121.5538416, 24.97967 ] } },
{ "type": "Feature", "properties": { "name": "寶橋水位站(固)", "DivID": "CCTV55", "DivSrc": "https://fmg.wra.gov.tw/FMGP/SingeView?sn=55&ft=C&ht=0", "OpenName": "寶橋", "OpenSrc": "https://fmg.wra.gov.tw/fmgp/ccd_proxy?sn=55", "provider": "水利署自建站" }, "geometry": { "type": "Point", "coordinates": [ 121.5538416, 24.97967 ] } },
{ "type": "Feature", "properties": { "name": "大坑溪(旋1)", "DivID": "CCTV56", "DivSrc": "https://fmg.wra.gov.tw/FMGP/SingeView?sn=56&ft=C&ht=0", "OpenName": "大坑溪", "OpenSrc": "https://fmg.wra.gov.tw/fmgp/ccd_proxy?sn=56", "provider": "水利署自建站" }, "geometry": { "type": "Point", "coordinates": [ 121.6164972, 25.049358 ] } },
{ "type": "Feature", "properties": { "name": "大坑溪(旋2)", "DivID": "CCTV57", "DivSrc": "https://fmg.wra.gov.tw/FMGP/SingeView?sn=57&ft=C&ht=0", "OpenName": "大坑溪", "OpenSrc": "https://fmg.wra.gov.tw/fmgp/ccd_proxy?sn=57", "provider": "水利署自建站" }, "geometry": { "type": "Point", "coordinates": [ 121.6164972, 25.049358 ] } },
{ "type": "Feature", "properties": { "name": "明潭發電廠(固)(旁收台電)", "DivID": "CCTV58", "DivSrc": "https://fmg.wra.gov.tw/FMGP/SingeView?sn=58&ft=C&ht=0", "OpenName": "明潭發電廠(台電提供)", "OpenSrc": "https://fmg.wra.gov.tw/fmgp/ccd_proxy?sn=58", "provider": "水利署自建站" }, "geometry": { "type": "Point", "coordinates": [ 120.867519, 23.836116 ] } },
{ "type": "Feature", "properties": { "name": "明潭發電廠(旁收台電)", "DivID": "CCTV59", "DivSrc": "https://fmg.wra.gov.tw/FMGP/SingeView?sn=59&ft=C&ht=0", "OpenName": "明潭發電廠(台電提供)", "OpenSrc": "https://fmg.wra.gov.tw/fmgp/ccd_proxy?sn=59", "provider": "水利署自建站" }, "geometry": { "type": "Point", "coordinates": [ 120.867519, 23.836116 ] } },
{ "type": "Feature", "properties": { "name": "石岡壩溢洪道左岸(旁收中水局)", "DivID": "CCTV60", "DivSrc": "https://fmg.wra.gov.tw/FMGP/SingeView?sn=60&ft=C&ht=0", "OpenName": "石岡壩(中水局提供)", "OpenSrc": null, "provider": "水利署自建站" }, "geometry": { "type": "Point", "coordinates": [ 120.76993, 24.2801638 ] } },
{ "type": "Feature", "properties": { "name": "石岡壩溢洪道右岸(旁收中水局)", "DivID": "CCTV61", "DivSrc": "https://fmg.wra.gov.tw/FMGP/SingeView?sn=61&ft=C&ht=0", "OpenName": "石岡壩(中水局提供)", "OpenSrc": null, "provider": "水利署自建站" }, "geometry": { "type": "Point", "coordinates": [ 120.76993, 24.2801638 ] } },
{ "type": "Feature", "properties": { "name": "石岡壩排砂道(旁收中水局)", "DivID": "CCTV62", "DivSrc": "https://fmg.wra.gov.tw/FMGP/SingeView?sn=62&ft=C&ht=0", "OpenName": "石岡壩(中水局提供)", "OpenSrc": null, "provider": "水利署自建站" }, "geometry": { "type": "Point", "coordinates": [ 120.76993, 24.2801638 ] } },
{ "type": "Feature", "properties": { "name": "石岡壩調節閘門(旁收中水局)", "DivID": "CCTV63", "DivSrc": "https://fmg.wra.gov.tw/FMGP/SingeView?sn=63&ft=C&ht=0", "OpenName": "石岡壩(中水局提供)", "OpenSrc": null, "provider": "水利署自建站" }, "geometry": { "type": "Point", "coordinates": [ 120.76993, 24.2801638 ] } },
{ "type": "Feature", "properties": { "name": "集集攔河堰_1(旁收中水局)", "DivID": "CCTV64", "DivSrc": "https://fmg.wra.gov.tw/FMGP/SingeView?sn=64&ft=C&ht=0", "OpenName": "集集攔河堰(中水局提供)", "OpenSrc": null, "provider": "水利署自建站" }, "geometry": { "type": "Point", "coordinates": [ 120.76515, 23.82104 ] } },
{ "type": "Feature", "properties": { "name": "集集攔河堰_2(旁收中水局)", "DivID": "CCTV65", "DivSrc": "https://fmg.wra.gov.tw/FMGP/SingeView?sn=65&ft=C&ht=0", "OpenName": "集集攔河堰(中水局提供)", "OpenSrc": null, "provider": "水利署自建站" }, "geometry": { "type": "Point", "coordinates": [ 120.76515, 23.82104 ] } },
{ "type": "Feature", "properties": { "name": "集集攔河堰_3(旁收中水局)", "DivID": "CCTV66", "DivSrc": "https://fmg.wra.gov.tw/FMGP/SingeView?sn=66&ft=C&ht=0", "OpenName": "集集攔河堰(中水局提供)", "OpenSrc": null, "provider": "水利署自建站" }, "geometry": { "type": "Point", "coordinates": [ 120.76515, 23.82104 ] } },
{ "type": "Feature", "properties": { "name": "集集攔河堰_4(旁收中水局)", "DivID": "CCTV67", "DivSrc": "https://fmg.wra.gov.tw/FMGP/SingeView?sn=67&ft=C&ht=0", "OpenName": "集集攔河堰(中水局提供)", "OpenSrc": null, "provider": "水利署自建站" }, "geometry": { "type": "Point", "coordinates": [ 120.76515, 23.82104 ] } },
{ "type": "Feature", "properties": { "name": "崇德橋(固)", "DivID": "CCTV68", "DivSrc": "https://fmg.wra.gov.tw/FMGP/SingeView?sn=68&ft=C&ht=0", "OpenName": "崇德橋", "OpenSrc": "https://fmg.wra.gov.tw/fmgp/ccd_proxy?sn=68", "provider": "水利署自建站" }, "geometry": { "type": "Point", "coordinates": [ 120.362969, 22.8756277 ] } },
{ "type": "Feature", "properties": { "name": "崇德橋(旋)", "DivID": "CCTV69", "DivSrc": "https://fmg.wra.gov.tw/FMGP/SingeView?sn=69&ft=C&ht=0", "OpenName": "崇德橋", "OpenSrc": "https://fmg.wra.gov.tw/fmgp/ccd_proxy?sn=69", "provider": "水利署自建站" }, "geometry": { "type": "Point", "coordinates": [ 120.362969, 22.8756277 ] } },
{ "type": "Feature", "properties": { "name": "阿公店橋(旋)", "DivID": "CCTV70", "DivSrc": "https://fmg.wra.gov.tw/FMGP/SingeView?sn=70&ft=C&ht=0", "OpenName": "阿公店橋", "OpenSrc": "https://fmg.wra.gov.tw/fmgp/ccd_proxy?sn=70", "provider": "水利署自建站" }, "geometry": { "type": "Point", "coordinates": [ 120.31891, 22.79581 ] } },
{ "type": "Feature", "properties": { "name": "阿公店橋(固)", "DivID": "CCTV71", "DivSrc": "https://fmg.wra.gov.tw/FMGP/SingeView?sn=71&ft=C&ht=0", "OpenName": "阿公店橋", "OpenSrc": "https://fmg.wra.gov.tw/fmgp/ccd_proxy?sn=71", "provider": "水利署自建站" }, "geometry": { "type": "Point", "coordinates": [ 120.31891, 22.79581 ] } },
{ "type": "Feature", "properties": { "name": "五堵抽水站_水尺", "DivID": "CCTV72", "DivSrc": "https://fmg.wra.gov.tw/FMGP/SingeView?sn=72&ft=C&ht=0", "OpenName": "五堵抽水站", "OpenSrc": "https://fmg.wra.gov.tw/fmgp/ccd_proxy?sn=72", "provider": "水利署自建站" }, "geometry": { "type": "Point", "coordinates": [ 121.6680305, 25.0785916 ] } },
{ "type": "Feature", "properties": { "name": "五堵抽水站(旋轉)", "DivID": "CCTV73", "DivSrc": "https://fmg.wra.gov.tw/FMGP/SingeView?sn=73&ft=C&ht=0", "OpenName": "五堵抽水站", "OpenSrc": "https://fmg.wra.gov.tw/fmgp/ccd_proxy?sn=73", "provider": "水利署自建站" }, "geometry": { "type": "Point", "coordinates": [ 121.6680305, 25.0785916 ] } },
{ "type": "Feature", "properties": { "name": "新市水位站(固)", "DivID": "CCTV76", "DivSrc": "https://fmg.wra.gov.tw/FMGP/SingeView?sn=76&ft=C&ht=0", "OpenName": "新市水位站", "OpenSrc": "https://fmg.wra.gov.tw/fmgp/ccd_proxy?sn=76", "provider": "水利署自建站" }, "geometry": { "type": "Point", "coordinates": [ 120.276336, 23.057886 ] } },
{ "type": "Feature", "properties": { "name": "大洲一號橋(固)", "DivID": "CCTV77", "DivSrc": "https://fmg.wra.gov.tw/FMGP/SingeView?sn=77&ft=C&ht=0", "OpenName": "大洲一號橋", "OpenSrc": "https://fmg.wra.gov.tw/fmgp/ccd_proxy?sn=77", "provider": "水利署自建站" }, "geometry": { "type": "Point", "coordinates": [ 120.246447, 23.06126 ] } },
{ "type": "Feature", "properties": { "name": "西門橋(旋轉鏡頭)", "DivID": "CCTV80", "DivSrc": "https://fmg.wra.gov.tw/FMGP/SingeView?sn=80&ft=C&ht=0", "OpenName": "西門橋", "OpenSrc": "https://fmg.wra.gov.tw/fmgp/ccd_proxy?sn=80", "provider": "水利署自建站" }, "geometry": { "type": "Point", "coordinates": [ 121.743839, 24.756978 ] } },
{ "type": "Feature", "properties": { "name": "西門橋(固定鏡頭)", "DivID": "CCTV81", "DivSrc": "https://fmg.wra.gov.tw/FMGP/SingeView?sn=81&ft=C&ht=0", "OpenName": "西門橋", "OpenSrc": "https://fmg.wra.gov.tw/fmgp/ccd_proxy?sn=81", "provider": "水利署自建站" }, "geometry": { "type": "Point", "coordinates": [ 121.743839, 24.756978 ] } },
{ "type": "Feature", "properties": { "name": "蘭陽橋(旋轉鏡頭)", "DivID": "CCTV82", "DivSrc": "https://fmg.wra.gov.tw/FMGP/SingeView?sn=82&ft=C&ht=0", "OpenName": "蘭陽橋", "OpenSrc": "https://fmg.wra.gov.tw/fmgp/ccd_proxy?sn=82", "provider": "水利署自建站" }, "geometry": { "type": "Point", "coordinates": [ 121.7722027, 24.7116361 ] } },
{ "type": "Feature", "properties": { "name": "蘭陽橋(固定鏡頭)", "DivID": "CCTV83", "DivSrc": "https://fmg.wra.gov.tw/FMGP/SingeView?sn=83&ft=C&ht=0", "OpenName": "蘭陽橋", "OpenSrc": "https://fmg.wra.gov.tw/fmgp/ccd_proxy?sn=83", "provider": "水利署自建站" }, "geometry": { "type": "Point", "coordinates": [ 121.7722027, 24.7116361 ] } },
{ "type": "Feature", "properties": { "name": "宜蘭橋(旋轉鏡頭)", "DivID": "CCTV84", "DivSrc": "https://fmg.wra.gov.tw/FMGP/SingeView?sn=84&ft=C&ht=0", "OpenName": "宜蘭橋", "OpenSrc": "https://fmg.wra.gov.tw/fmgp/ccd_proxy?sn=84", "provider": "水利署自建站" }, "geometry": { "type": "Point", "coordinates": [ 121.75583, 24.766686 ] } },
{ "type": "Feature", "properties": { "name": "宜蘭橋(固定鏡頭)", "DivID": "CCTV85", "DivSrc": "https://fmg.wra.gov.tw/FMGP/SingeView?sn=85&ft=C&ht=0", "OpenName": "宜蘭橋", "OpenSrc": "https://fmg.wra.gov.tw/fmgp/ccd_proxy?sn=85", "provider": "水利署自建站" }, "geometry": { "type": "Point", "coordinates": [ 121.75583, 24.766686 ] } },
{ "type": "Feature", "properties": { "name": "後庄分洪排水站(旋轉鏡頭)", "DivID": "CCTV86", "DivSrc": "https://fmg.wra.gov.tw/FMGP/SingeView?sn=86&ft=C&ht=0", "OpenName": "後庄分洪", "OpenSrc": "https://fmg.wra.gov.tw/fmgp/ccd_proxy?sn=86", "provider": "水利署自建站" }, "geometry": { "type": "Point", "coordinates": [ 120.4704638, 23.4502972 ] } },
{ "type": "Feature", "properties": { "name": "後庄分洪排水站(固定鏡頭)", "DivID": "CCTV87", "DivSrc": "https://fmg.wra.gov.tw/FMGP/SingeView?sn=87&ft=C&ht=0", "OpenName": "後庄分洪", "OpenSrc": "https://fmg.wra.gov.tw/fmgp/ccd_proxy?sn=87", "provider": "水利署自建站" }, "geometry": { "type": "Point", "coordinates": [ 120.4704638, 23.4502972 ] } },
{ "type": "Feature", "properties": { "name": "美上美社區(旋轉鏡頭)", "DivID": "CCTV88", "DivSrc": "https://fmg.wra.gov.tw/FMGP/SingeView?sn=88&ft=C&ht=0", "OpenName": "美上美社區", "OpenSrc": "https://fmg.wra.gov.tw/fmgp/ccd_proxy?sn=88", "provider": "水利署自建站" }, "geometry": { "type": "Point", "coordinates": [ 120.40952, 23.426194 ] } },
{ "type": "Feature", "properties": { "name": "美上美社區(固定鏡頭)", "DivID": "CCTV89", "DivSrc": "https://fmg.wra.gov.tw/FMGP/SingeView?sn=89&ft=C&ht=0", "OpenName": "美上美社區", "OpenSrc": "https://fmg.wra.gov.tw/fmgp/ccd_proxy?sn=89", "provider": "水利署自建站" }, "geometry": { "type": "Point", "coordinates": [ 120.40952, 23.426194 ] } },
{ "type": "Feature", "properties": { "name": "清景橋(旋轉鏡頭)", "DivID": "CCTV90", "DivSrc": "https://fmg.wra.gov.tw/FMGP/SingeView?sn=90&ft=C&ht=0", "OpenName": "清景橋", "OpenSrc": "https://fmg.wra.gov.tw/fmgp/ccd_proxy?sn=90", "provider": "水利署自建站" }, "geometry": { "type": "Point", "coordinates": [ 120.46478, 23.4531 ] } },
{ "type": "Feature", "properties": { "name": "牛稠溪橋(旋轉鏡頭)", "DivID": "CCTV94", "DivSrc": "https://fmg.wra.gov.tw/FMGP/SingeView?sn=94&ft=C&ht=0", "OpenName": "牛稠溪橋", "OpenSrc": "https://fmg.wra.gov.tw/fmgp/ccd_proxy?sn=94", "provider": "水利署自建站" }, "geometry": { "type": "Point", "coordinates": [ 120.4420638, 23.5139027 ] } },
{ "type": "Feature", "properties": { "name": "牛稠溪橋(固定鏡頭)", "DivID": "CCTV95", "DivSrc": "https://fmg.wra.gov.tw/FMGP/SingeView?sn=95&ft=C&ht=0", "OpenName": "牛稠溪橋", "OpenSrc": "https://fmg.wra.gov.tw/fmgp/ccd_proxy?sn=95", "provider": "水利署自建站" }, "geometry": { "type": "Point", "coordinates": [ 120.4420638, 23.5139027 ] } },
{ "type": "Feature", "properties": { "name": "後湖堤防(旋轉鏡頭)", "DivID": "CCTV96", "DivSrc": "https://fmg.wra.gov.tw/FMGP/SingeView?sn=96&ft=C&ht=0", "OpenName": "後湖堤防", "OpenSrc": "https://fmg.wra.gov.tw/fmgp/ccd_proxy?sn=96", "provider": "水利署自建站" }, "geometry": { "type": "Point", "coordinates": [ 120.4504416, 23.5141527 ] } },
{ "type": "Feature", "properties": { "name": "台林橋(旋轉鏡頭)", "DivID": "CCTV97", "DivSrc": "https://fmg.wra.gov.tw/FMGP/SingeView?sn=97&ft=C&ht=0", "OpenName": "台林橋", "OpenSrc": "https://fmg.wra.gov.tw/fmgp/ccd_proxy?sn=97", "provider": "水利署自建站" }, "geometry": { "type": "Point", "coordinates": [ 120.46169, 23.505188 ] } },
{ "type": "Feature", "properties": { "name": "台林橋(固定鏡頭)", "DivID": "CCTV98", "DivSrc": "https://fmg.wra.gov.tw/FMGP/SingeView?sn=98&ft=C&ht=0", "OpenName": "台林橋", "OpenSrc": "https://fmg.wra.gov.tw/fmgp/ccd_proxy?sn=98", "provider": "水利署自建站" }, "geometry": { "type": "Point", "coordinates": [ 120.46169, 23.505188 ] } },
{ "type": "Feature", "properties": { "name": "員山子分洪堰至隧道口(旁收十河局)", "DivID": "CCTV99", "DivSrc": "https://fmg.wra.gov.tw/FMGP/SingeView?sn=99&ft=C&ht=0", "OpenName": "員山子分洪(十河局提供)", "OpenSrc": null, "provider": "水利署自建站" }, "geometry": { "type": "Point", "coordinates": [ 121.829136, 25.1061527 ] } },
{ "type": "Feature", "properties": { "name": "員山子分洪隧道出水口(旁收十河局)", "DivID": "CCTV100", "DivSrc": "https://fmg.wra.gov.tw/FMGP/SingeView?sn=100&ft=C&ht=0", "OpenName": "員山子分洪(十河局提供)", "OpenSrc": null, "provider": "水利署自建站" }, "geometry": { "type": "Point", "coordinates": [ 121.829136, 25.1061527 ] } },
{ "type": "Feature", "properties": { "name": "員山子隧道進水口(旁收十河局)", "DivID": "CCTV101", "DivSrc": "https://fmg.wra.gov.tw/FMGP/SingeView?sn=101&ft=C&ht=0", "OpenName": "員山子分洪(十河局提供)", "OpenSrc": null, "provider": "水利署自建站" }, "geometry": { "type": "Point", "coordinates": [ 121.829136, 25.1061527 ] } },
{ "type": "Feature", "properties": { "name": "員山子側流堰(旁收十河局)", "DivID": "CCTV102", "DivSrc": "https://fmg.wra.gov.tw/FMGP/SingeView?sn=102&ft=C&ht=0", "OpenName": "員山子分洪(十河局提供)", "OpenSrc": null, "provider": "水利署自建站" }, "geometry": { "type": "Point", "coordinates": [ 121.829136, 25.1061527 ] } },
{ "type": "Feature", "properties": { "name": "員山子攔河堰(旁收十河局)", "DivID": "CCTV103", "DivSrc": "https://fmg.wra.gov.tw/FMGP/SingeView?sn=103&ft=C&ht=0", "OpenName": "員山子分洪(十河局提供)", "OpenSrc": null, "provider": "水利署自建站" }, "geometry": { "type": "Point", "coordinates": [ 121.829136, 25.1061527 ] } },
{ "type": "Feature", "properties": { "name": "員山子上游攔砂壩(旁收十河局)", "DivID": "CCTV104", "DivSrc": "https://fmg.wra.gov.tw/FMGP/SingeView?sn=104&ft=C&ht=0", "OpenName": "員山子分洪(十河局提供)", "OpenSrc": null, "provider": "水利署自建站" }, "geometry": { "type": "Point", "coordinates": [ 121.829136, 25.1061527 ] } },
{ "type": "Feature", "properties": { "name": "員山子分洪堰(旁收十河局)", "DivID": "CCTV105", "DivSrc": "https://fmg.wra.gov.tw/FMGP/SingeView?sn=105&ft=C&ht=0", "OpenName": "員山子分洪(十河局提供)", "OpenSrc": null, "provider": "水利署自建站" }, "geometry": { "type": "Point", "coordinates": [ 121.829136, 25.1061527 ] } },
{ "type": "Feature", "properties": { "name": "員山子攔河堰與排砂道下游(旁收十河局)", "DivID": "CCTV106", "DivSrc": "https://fmg.wra.gov.tw/FMGP/SingeView?sn=106&ft=C&ht=0", "OpenName": "員山子分洪(十河局提供)", "OpenSrc": null, "provider": "水利署自建站" }, "geometry": { "type": "Point", "coordinates": [ 121.829136, 25.1061527 ] } },
{ "type": "Feature", "properties": { "name": "好美里(固定鏡頭)", "DivID": "CCTV107", "DivSrc": "https://fmg.wra.gov.tw/FMGP/SingeView?sn=107&ft=C&ht=0", "OpenName": "好美里", "OpenSrc": "https://fmg.wra.gov.tw/fmgp/ccd_proxy?sn=107", "provider": "水利署自建站" }, "geometry": { "type": "Point", "coordinates": [ 120.127727, 23.3575305 ] } },
{ "type": "Feature", "properties": { "name": "好美里(旋轉鏡頭)", "DivID": "CCTV108", "DivSrc": "https://fmg.wra.gov.tw/FMGP/SingeView?sn=108&ft=C&ht=0", "OpenName": "好美里", "OpenSrc": "https://fmg.wra.gov.tw/fmgp/ccd_proxy?sn=108", "provider": "水利署自建站" }, "geometry": { "type": "Point", "coordinates": [ 120.127727, 23.3575305 ] } },
{ "type": "Feature", "properties": { "name": "萬興閘門橋", "DivID": "CCTV109", "DivSrc": "https://fmg.wra.gov.tw/FMGP/SingeView?sn=109&ft=C&ht=0", "OpenName": "萬興閘門橋", "OpenSrc": "https://fmg.wra.gov.tw/fmgp/ccd_proxy?sn=109", "provider": "水利署自建站" }, "geometry": { "type": "Point", "coordinates": [ 120.2099138, 23.5783805 ] } },
{ "type": "Feature", "properties": { "name": "蔦松大排抽水站", "DivID": "CCTV112", "DivSrc": "https://fmg.wra.gov.tw/FMGP/SingeView?sn=112&ft=C&ht=0", "OpenName": "蔦松大排抽水站", "OpenSrc": "https://fmg.wra.gov.tw/fmgp/ccd_proxy?sn=112", "provider": "水利署自建站" }, "geometry": { "type": "Point", "coordinates": [ 120.205436, 23.530286 ] } },
{ "type": "Feature", "properties": { "name": "宜梧橋", "DivID": "CCTV114", "DivSrc": "https://fmg.wra.gov.tw/FMGP/SingeView?sn=114&ft=C&ht=0", "OpenName": "宜梧橋", "OpenSrc": "https://fmg.wra.gov.tw/fmgp/ccd_proxy?sn=114", "provider": "水利署自建站" }, "geometry": { "type": "Point", "coordinates": [ 120.190058, 23.54334 ] } },
{ "type": "Feature", "properties": { "name": "石門水庫(介接北水局)", "DivID": "CCTV116", "DivSrc": "https://fmg.wra.gov.tw/FMGP/SingeView?sn=116&ft=C&ht=0", "OpenName": "石門水庫(介接北水局)", "OpenSrc": null, "provider": "水利署自建站" }, "geometry": { "type": "Point", "coordinates": [ 121.23989, 24.81307 ] } },
{ "type": "Feature", "properties": { "name": "烏溪橋", "DivID": "CCTV121", "DivSrc": "https://fmg.wra.gov.tw/FMGP/SingeView?sn=121&ft=C&ht=0", "OpenName": "烏溪橋", "OpenSrc": "https://fmg.wra.gov.tw/fmgp/ccd_proxy?sn=121", "provider": "水利署自建站" }, "geometry": { "type": "Point", "coordinates": [ 120.6944138, 24.005083 ] } },
{ "type": "Feature", "properties": { "name": "南崗大橋", "DivID": "CCTV122", "DivSrc": "https://fmg.wra.gov.tw/FMGP/SingeView?sn=122&ft=C&ht=0", "OpenName": "南崗大橋", "OpenSrc": "https://fmg.wra.gov.tw/fmgp/ccd_proxy?sn=122", "provider": "水利署自建站" }, "geometry": { "type": "Point", "coordinates": [ 120.673397, 23.941721 ] } },
{ "type": "Feature", "properties": { "name": "東石鄉圍潭村", "DivID": "CCTV123", "DivSrc": "https://fmg.wra.gov.tw/FMGP/SingeView?sn=123&ft=C&ht=0", "OpenName": "東石鄉圍潭村", "OpenSrc": "https://fmg.wra.gov.tw/fmgp/ccd_proxy?sn=123", "provider": "水利署自建站" }, "geometry": { "type": "Point", "coordinates": [ 120.198305, 23.4591305 ] } },
{ "type": "Feature", "properties": { "name": "荷包嶼", "DivID": "CCTV124", "DivSrc": "https://fmg.wra.gov.tw/FMGP/SingeView?sn=124&ft=C&ht=0", "OpenName": "荷包嶼", "OpenSrc": "https://fmg.wra.gov.tw/fmgp/ccd_proxy?sn=124", "provider": "水利署自建站" }, "geometry": { "type": "Point", "coordinates": [ 120.19167, 23.449586 ] } },
{ "type": "Feature", "properties": { "name": "洲子分校", "DivID": "CCTV125", "DivSrc": "https://fmg.wra.gov.tw/FMGP/SingeView?sn=125&ft=C&ht=0", "OpenName": "洲子分校", "OpenSrc": "https://fmg.wra.gov.tw/fmgp/ccd_proxy?sn=125", "provider": "水利署自建站" }, "geometry": { "type": "Point", "coordinates": [ 120.194055, 23.45194 ] } },
{ "type": "Feature", "properties": { "name": "將軍溪華宗橋", "DivID": "CCTV126", "DivSrc": "https://fmg.wra.gov.tw/FMGP/SingeView?sn=126&ft=C&ht=0", "OpenName": "將軍溪華宗橋", "OpenSrc": "https://fmg.wra.gov.tw/fmgp/ccd_proxy?sn=126", "provider": "水利署自建站" }, "geometry": { "type": "Point", "coordinates": [ 120.1727972, 23.22556 ] } },
{ "type": "Feature", "properties": { "name": "美濃溪美濃橋", "DivID": "CCTV128", "DivSrc": "https://fmg.wra.gov.tw/FMGP/SingeView?sn=128&ft=C&ht=0", "OpenName": "美濃溪美濃橋", "OpenSrc": null, "provider": "水利署自建站" }, "geometry": { "type": "Point", "coordinates": [ 120.542488, 22.8988416 ] } },
{ "type": "Feature", "properties": { "name": "隘寮溪三地門大橋(旋轉)", "DivID": "CCTV129", "DivSrc": "https://fmg.wra.gov.tw/FMGP/SingeView?sn=129&ft=C&ht=0", "OpenName": "隘寮溪三地門大橋", "OpenSrc": "https://fmg.wra.gov.tw/fmgp/ccd_proxy?sn=129", "provider": "水利署自建站" }, "geometry": { "type": "Point", "coordinates": [ 120.645841, 22.711633 ] } },
{ "type": "Feature", "properties": { "name": "港東二橋(介接七河局)", "DivID": "CCTV130", "DivSrc": "https://fmg.wra.gov.tw/FMGP/SingeView?sn=130&ft=C&ht=0", "OpenName": "港東二號橋(介接七河局)", "OpenSrc": null, "provider": "水利署自建站" }, "geometry": { "type": "Point", "coordinates": [ 120.477101, 22.51823 ] } },
{ "type": "Feature", "properties": { "name": "四重溪車城橋", "DivID": "CCTV131", "DivSrc": "https://fmg.wra.gov.tw/FMGP/SingeView?sn=131&ft=C&ht=0", "OpenName": "四重溪車城橋", "OpenSrc": "https://fmg.wra.gov.tw/fmgp/ccd_proxy?sn=131", "provider": "水利署自建站" }, "geometry": { "type": "Point", "coordinates": [ 120.7137, 22.068458 ] } },
{ "type": "Feature", "properties": { "name": "舊港橋", "DivID": "CCTV134", "DivSrc": "https://fmg.wra.gov.tw/FMGP/SingeView?sn=134&ft=C&ht=0", "OpenName": "舊港橋", "OpenSrc": "https://fmg.wra.gov.tw/fmgp/ccd_proxy?sn=134", "provider": "水利署自建站" }, "geometry": { "type": "Point", "coordinates": [ 120.9413277, 24.844083 ] } },
{ "type": "Feature", "properties": { "name": "海口堤防", "DivID": "CCTV135", "DivSrc": "https://fmg.wra.gov.tw/FMGP/SingeView?sn=135&ft=C&ht=0", "OpenName": "海口堤防", "OpenSrc": "https://fmg.wra.gov.tw/fmgp/ccd_proxy?sn=135", "provider": "水利署自建站" }, "geometry": { "type": "Point", "coordinates": [ 120.863983, 24.667027 ] } },
{ "type": "Feature", "properties": { "name": "大度橋", "DivID": "CCTV136", "DivSrc": "https://fmg.wra.gov.tw/FMGP/SingeView?sn=136&ft=C&ht=0", "OpenName": "大度橋", "OpenSrc": "https://fmg.wra.gov.tw/fmgp/ccd_proxy?sn=136", "provider": "水利署自建站" }, "geometry": { "type": "Point", "coordinates": [ 120.579994, 24.102105 ] } },
{ "type": "Feature", "properties": { "name": "網寮村", "DivID": "CCTV139", "DivSrc": "https://fmg.wra.gov.tw/FMGP/SingeView?sn=139&ft=C&ht=0", "OpenName": "網寮村", "OpenSrc": "https://fmg.wra.gov.tw/fmgp/ccd_proxy?sn=139", "provider": "水利署自建站" }, "geometry": { "type": "Point", "coordinates": [ 120.154797, 23.437288 ] } },
{ "type": "Feature", "properties": { "name": "義布橋(旋轉)", "DivID": "CCTV140", "DivSrc": "https://fmg.wra.gov.tw/FMGP/SingeView?sn=140&ft=C&ht=0", "OpenName": "義布橋", "OpenSrc": "https://fmg.wra.gov.tw/fmgp/ccd_proxy?sn=140", "provider": "水利署自建站" }, "geometry": { "type": "Point", "coordinates": [ 120.1990805, 23.3687472 ] } },
{ "type": "Feature", "properties": { "name": "錦湖里", "DivID": "CCTV141", "DivSrc": "https://fmg.wra.gov.tw/FMGP/SingeView?sn=141&ft=C&ht=0", "OpenName": "錦湖里", "OpenSrc": "https://fmg.wra.gov.tw/fmgp/ccd_proxy?sn=141", "provider": "水利署自建站" }, "geometry": { "type": "Point", "coordinates": [ 120.16785, 23.29805 ] } },
{ "type": "Feature", "properties": { "name": "新圍抽水站", "DivID": "CCTV142", "DivSrc": "https://fmg.wra.gov.tw/FMGP/SingeView?sn=142&ft=C&ht=0", "OpenName": "新圍抽水站", "OpenSrc": "https://fmg.wra.gov.tw/fmgp/ccd_proxy?sn=142", "provider": "水利署自建站" }, "geometry": { "type": "Point", "coordinates": [ 120.146588, 23.293533 ] } },
{ "type": "Feature", "properties": { "name": "小埤里社區", "DivID": "CCTV143", "DivSrc": "https://fmg.wra.gov.tw/FMGP/SingeView?sn=143&ft=C&ht=0", "OpenName": "小埤里社區", "OpenSrc": "https://fmg.wra.gov.tw/fmgp/ccd_proxy?sn=143", "provider": "水利署自建站" }, "geometry": { "type": "Point", "coordinates": [ 120.2318, 23.192422 ] } },
{ "type": "Feature", "properties": { "name": "典寶溪(旋轉鏡頭)", "DivID": "CCTV144", "DivSrc": "https://fmg.wra.gov.tw/FMGP/SingeView?sn=144&ft=C&ht=0", "OpenName": "典寶溪", "OpenSrc": "https://fmg.wra.gov.tw/fmgp/ccd_proxy?sn=144", "provider": "水利署自建站" }, "geometry": { "type": "Point", "coordinates": [ 120.275, 22.767644 ] } },
{ "type": "Feature", "properties": { "name": "羌園村", "DivID": "CCTV145", "DivSrc": "https://fmg.wra.gov.tw/FMGP/SingeView?sn=145&ft=C&ht=0", "OpenName": "羌園村", "OpenSrc": "https://fmg.wra.gov.tw/fmgp/ccd_proxy?sn=145", "provider": "水利署自建站" }, "geometry": { "type": "Point", "coordinates": [ 120.527675, 22.4296916 ] } },
{ "type": "Feature", "properties": { "name": "立山站", "DivID": "CCTV146", "DivSrc": "https://fmg.wra.gov.tw/FMGP/SingeView?sn=146&ft=C&ht=0", "OpenName": "立山站", "OpenSrc": "https://fmg.wra.gov.tw/fmgp/ccd_proxy?sn=146", "provider": "水利署自建站" }, "geometry": { "type": "Point", "coordinates": [ 121.313358, 23.430816 ] } },
{ "type": "Feature", "properties": { "name": "尚志橋", "DivID": "CCTV148", "DivSrc": "https://fmg.wra.gov.tw/FMGP/SingeView?sn=148&ft=C&ht=0", "OpenName": "尚志橋", "OpenSrc": "https://fmg.wra.gov.tw/fmgp/ccd_proxy?sn=148", "provider": "水利署自建站" }, "geometry": { "type": "Point", "coordinates": [ 121.61076, 23.9840416 ] } },
{ "type": "Feature", "properties": { "name": "南湖二橋", "DivID": "CCTV149", "DivSrc": "https://fmg.wra.gov.tw/FMGP/SingeView?sn=149&ft=C&ht=0", "OpenName": "南湖二橋", "OpenSrc": "https://fmg.wra.gov.tw/fmgp/ccd_proxy?sn=149", "provider": "水利署自建站" }, "geometry": { "type": "Point", "coordinates": [ 120.868575, 24.398625 ] } },
{ "type": "Feature", "properties": { "name": "豐洲堤防", "DivID": "CCTV150", "DivSrc": "https://fmg.wra.gov.tw/FMGP/SingeView?sn=150&ft=C&ht=0", "OpenName": "豐洲堤防", "OpenSrc": "https://fmg.wra.gov.tw/fmgp/ccd_proxy?sn=150", "provider": "水利署自建站" }, "geometry": { "type": "Point", "coordinates": [ 120.700938, 24.279527 ] } },
{ "type": "Feature", "properties": { "name": "溪南橋", "DivID": "CCTV151", "DivSrc": "https://fmg.wra.gov.tw/FMGP/SingeView?sn=151&ft=C&ht=0", "OpenName": "溪南橋", "OpenSrc": "https://fmg.wra.gov.tw/fmgp/ccd_proxy?sn=151", "provider": "水利署自建站" }, "geometry": { "type": "Point", "coordinates": [ 120.642561, 24.09321 ] } },
{ "type": "Feature", "properties": { "name": "集泉橋", "DivID": "CCTV152", "DivSrc": "https://fmg.wra.gov.tw/FMGP/SingeView?sn=152&ft=C&ht=0", "OpenName": "集泉橋", "OpenSrc": "https://fmg.wra.gov.tw/fmgp/ccd_proxy?sn=152", "provider": "水利署自建站" }, "geometry": { "type": "Point", "coordinates": [ 120.6145194, 24.106927 ] } },
{ "type": "Feature", "properties": { "name": "虎尾溪平和橋", "DivID": "CCTV153", "DivSrc": "https://fmg.wra.gov.tw/FMGP/SingeView?sn=153&ft=C&ht=0", "OpenName": "虎尾溪平和橋", "OpenSrc": "https://fmg.wra.gov.tw/fmgp/ccd_proxy?sn=153", "provider": "水利署自建站" }, "geometry": { "type": "Point", "coordinates": [ 120.459055, 23.700955 ] } },
{ "type": "Feature", "properties": { "name": "溪口橋", "DivID": "CCTV154", "DivSrc": "https://fmg.wra.gov.tw/FMGP/SingeView?sn=154&ft=C&ht=0", "OpenName": "溪口橋", "OpenSrc": "https://fmg.wra.gov.tw/fmgp/ccd_proxy?sn=154", "provider": "水利署自建站" }, "geometry": { "type": "Point", "coordinates": [ 120.40684, 23.6074916 ] } },
{ "type": "Feature", "properties": { "name": "盧山橋", "DivID": "CCTV155", "DivSrc": "https://fmg.wra.gov.tw/FMGP/SingeView?sn=155&ft=C&ht=0", "OpenName": "盧山橋", "OpenSrc": "https://fmg.wra.gov.tw/fmgp/ccd_proxy?sn=155", "provider": "水利署自建站" }, "geometry": { "type": "Point", "coordinates": [ 120.47888, 23.504408 ] } },
{ "type": "Feature", "properties": { "name": "永安抽水站", "DivID": "CCTV158", "DivSrc": "https://fmg.wra.gov.tw/FMGP/SingeView?sn=158&ft=C&ht=0", "OpenName": "永安抽水站", "OpenSrc": "https://fmg.wra.gov.tw/fmgp/ccd_proxy?sn=158", "provider": "水利署自建站" }, "geometry": { "type": "Point", "coordinates": [ 120.177697, 23.367769 ] } },
{ "type": "Feature", "properties": { "name": "過溝中排_內水", "DivID": "CCTV160", "DivSrc": "https://fmg.wra.gov.tw/FMGP/SingeView?sn=160&ft=C&ht=0", "OpenName": "過溝中排", "OpenSrc": "https://fmg.wra.gov.tw/fmgp/ccd_proxy?sn=160", "provider": "水利署自建站" }, "geometry": { "type": "Point", "coordinates": [ 120.179325, 23.406538 ] } },
{ "type": "Feature", "properties": { "name": "福興橋", "DivID": "CCTV161", "DivSrc": "https://fmg.wra.gov.tw/FMGP/SingeView?sn=161&ft=C&ht=0", "OpenName": "福興橋", "OpenSrc": "https://fmg.wra.gov.tw/fmgp/ccd_proxy?sn=161", "provider": "水利署自建站" }, "geometry": { "type": "Point", "coordinates": [ 120.4299416, 24.0488527 ] } },
{ "type": "Feature", "properties": { "name": "新埔橋", "DivID": "CCTV162", "DivSrc": "https://fmg.wra.gov.tw/FMGP/SingeView?sn=162&ft=C&ht=0", "OpenName": "新埔橋", "OpenSrc": "https://fmg.wra.gov.tw/fmgp/ccd_proxy?sn=162", "provider": "水利署自建站" }, "geometry": { "type": "Point", "coordinates": [ 121.065783, 24.824916 ] } },
{ "type": "Feature", "properties": { "name": "八掌溪橋左岸", "DivID": "CCTV163", "DivSrc": "https://fmg.wra.gov.tw/FMGP/SingeView?sn=163&ft=C&ht=0", "OpenName": "八掌溪橋左岸", "OpenSrc": "https://fmg.wra.gov.tw/fmgp/ccd_proxy?sn=163", "provider": "水利署自建站" }, "geometry": { "type": "Point", "coordinates": [ 120.381536, 23.402741 ] } },
{ "type": "Feature", "properties": { "name": "圓山抽水站(旋轉鏡頭)", "DivID": "CCTV166", "DivSrc": "https://fmg.wra.gov.tw/FMGP/SingeView?sn=166&ft=C&ht=0", "OpenName": "圓山抽水站(台北中山橋)", "OpenSrc": "https://fmg.wra.gov.tw/fmgp/ccd_proxy?sn=166", "provider": "水利署自建站" }, "geometry": { "type": "Point", "coordinates": [ 121.527608, 25.0719972 ] } },
{ "type": "Feature", "properties": { "name": "玉峰大橋_水尺", "DivID": "CCTV171", "DivSrc": "https://fmg.wra.gov.tw/FMGP/SingeView?sn=171&ft=C&ht=0", "OpenName": "玉峰大橋", "OpenSrc": "https://fmg.wra.gov.tw/fmgp/ccd_proxy?sn=171", "provider": "水利署自建站" }, "geometry": { "type": "Point", "coordinates": [ 120.84859, 23.81108 ] } },
{ "type": "Feature", "properties": { "name": "義里橋", "DivID": "CCTV172", "DivSrc": "https://fmg.wra.gov.tw/FMGP/SingeView?sn=172&ft=C&ht=0", "OpenName": "義里橋", "OpenSrc": "https://fmg.wra.gov.tw/fmgp/ccd_proxy?sn=172", "provider": "水利署自建站" }, "geometry": { "type": "Point", "coordinates": [ 120.73743, 24.341275 ] } },
{ "type": "Feature", "properties": { "name": "乾峰橋", "DivID": "CCTV173", "DivSrc": "https://fmg.wra.gov.tw/FMGP/SingeView?sn=173&ft=C&ht=0", "OpenName": "乾峰橋", "OpenSrc": "https://fmg.wra.gov.tw/fmgp/ccd_proxy?sn=173", "provider": "水利署自建站" }, "geometry": { "type": "Point", "coordinates": [ 120.8250305, 24.0273305 ] } },
{ "type": "Feature", "properties": { "name": "二水鐵路橋", "DivID": "CCTV175", "DivSrc": "https://fmg.wra.gov.tw/FMGP/SingeView?sn=175&ft=C&ht=0", "OpenName": "二水鐵路橋", "OpenSrc": "https://fmg.wra.gov.tw/fmgp/ccd_proxy?sn=175", "provider": "水利署自建站" }, "geometry": { "type": "Point", "coordinates": [ 120.640241, 23.776432 ] } },
{ "type": "Feature", "properties": { "name": "崙豐國小", "DivID": "CCTV176", "DivSrc": "https://fmg.wra.gov.tw/FMGP/SingeView?sn=176&ft=C&ht=0", "OpenName": "崙豐國小", "OpenSrc": "https://fmg.wra.gov.tw/fmgp/ccd_proxy?sn=176", "provider": "水利署自建站" }, "geometry": { "type": "Point", "coordinates": [ 120.209822, 23.720966 ] } },
{ "type": "Feature", "properties": { "name": "順興抽水站", "DivID": "CCTV177", "DivSrc": "https://fmg.wra.gov.tw/FMGP/SingeView?sn=177&ft=C&ht=0", "OpenName": "順興抽水站", "OpenSrc": "https://fmg.wra.gov.tw/fmgp/ccd_proxy?sn=177", "provider": "水利署自建站" }, "geometry": { "type": "Point", "coordinates": [ 120.208375, 23.5438027 ] } },
{ "type": "Feature", "properties": { "name": "新港大排", "DivID": "CCTV178", "DivSrc": "https://fmg.wra.gov.tw/FMGP/SingeView?sn=178&ft=C&ht=0", "OpenName": "新港大排", "OpenSrc": "https://fmg.wra.gov.tw/fmgp/ccd_proxy?sn=178", "provider": "水利署自建站" }, "geometry": { "type": "Point", "coordinates": [ 120.154361, 23.591038 ] } },
{ "type": "Feature", "properties": { "name": "羊稠厝大排_1", "DivID": "CCTV179", "DivSrc": "https://fmg.wra.gov.tw/FMGP/SingeView?sn=179&ft=C&ht=0", "OpenName": "羊稠厝大排", "OpenSrc": "https://fmg.wra.gov.tw/fmgp/ccd_proxy?sn=179", "provider": "水利署自建站" }, "geometry": { "type": "Point", "coordinates": [ 120.154272, 23.60376 ] } },
{ "type": "Feature", "properties": { "name": "羊稠厝大排_2", "DivID": "CCTV180", "DivSrc": "https://fmg.wra.gov.tw/FMGP/SingeView?sn=180&ft=C&ht=0", "OpenName": "羊稠厝大排", "OpenSrc": "https://fmg.wra.gov.tw/fmgp/ccd_proxy?sn=180", "provider": "水利署自建站" }, "geometry": { "type": "Point", "coordinates": [ 120.154272, 23.60376 ] } },
{ "type": "Feature", "properties": { "name": "鹽水溪與安順寮排水匯流處", "DivID": "CCTV182", "DivSrc": "https://fmg.wra.gov.tw/FMGP/SingeView?sn=182&ft=C&ht=0", "OpenName": "鹽水溪與安順寮排水匯流處", "OpenSrc": "https://fmg.wra.gov.tw/fmgp/ccd_proxy?sn=182", "provider": "水利署自建站" }, "geometry": { "type": "Point", "coordinates": [ 120.225436, 23.04311 ] } },
{ "type": "Feature", "properties": { "name": "鹽水溪與安順寮排水匯流處_水尺", "DivID": "CCTV183", "DivSrc": "https://fmg.wra.gov.tw/FMGP/SingeView?sn=183&ft=C&ht=0", "OpenName": "鹽水溪與安順寮排水匯流處", "OpenSrc": "https://fmg.wra.gov.tw/fmgp/ccd_proxy?sn=183", "provider": "水利署自建站" }, "geometry": { "type": "Point", "coordinates": [ 120.225436, 23.04311 ] } },
{ "type": "Feature", "properties": { "name": "二層行橋(旋)", "DivID": "CCTV184", "DivSrc": "https://fmg.wra.gov.tw/FMGP/SingeView?sn=184&ft=C&ht=0", "OpenName": "二層行橋", "OpenSrc": "https://fmg.wra.gov.tw/fmgp/ccd_proxy?sn=184", "provider": "水利署自建站" }, "geometry": { "type": "Point", "coordinates": [ 120.22956, 22.917736 ] } },
{ "type": "Feature", "properties": { "name": "美濃三夾水", "DivID": "CCTV185", "DivSrc": "https://fmg.wra.gov.tw/FMGP/SingeView?sn=185&ft=C&ht=0", "OpenName": "美濃三夾水", "OpenSrc": "https://fmg.wra.gov.tw/fmgp/ccd_proxy?sn=185", "provider": "水利署自建站" }, "geometry": { "type": "Point", "coordinates": [ 120.539808, 22.89836 ] } },
{ "type": "Feature", "properties": { "name": "萬巒大橋", "DivID": "CCTV186", "DivSrc": "https://fmg.wra.gov.tw/FMGP/SingeView?sn=186&ft=C&ht=0", "OpenName": "萬巒大橋", "OpenSrc": "https://fmg.wra.gov.tw/fmgp/ccd_proxy?sn=186", "provider": "水利署自建站" }, "geometry": { "type": "Point", "coordinates": [ 120.565686, 22.5797138 ] } },
{ "type": "Feature", "properties": { "name": "瑪陵坑溪", "DivID": "CCTV187", "DivSrc": "https://fmg.wra.gov.tw/FMGP/SingeView?sn=187&ft=C&ht=0", "OpenName": "瑪陵坑溪", "OpenSrc": "https://fmg.wra.gov.tw/fmgp/ccd_proxy?sn=187", "provider": "水利署自建站" }, "geometry": { "type": "Point", "coordinates": [ 121.69994, 25.096275 ] } },
{ "type": "Feature", "properties": { "name": "荷包嶼-水門", "DivID": "CCTV188", "DivSrc": "https://fmg.wra.gov.tw/FMGP/SingeView?sn=188&ft=C&ht=0", "OpenName": "荷包嶼", "OpenSrc": "https://fmg.wra.gov.tw/fmgp/ccd_proxy?sn=188", "provider": "水利署自建站" }, "geometry": { "type": "Point", "coordinates": [ 120.19167, 23.449586 ] } },
{ "type": "Feature", "properties": { "name": "華江橋HD", "DivID": "CCTV189", "DivSrc": "https://fmg.wra.gov.tw/FMGP/SingeView?sn=189&ft=C&ht=0", "OpenName": "華江橋", "OpenSrc": "https://fmg.wra.gov.tw/fmgp/ccd_proxy?sn=189", "provider": "水利署自建站" }, "geometry": { "type": "Point", "coordinates": [ 121.4812472, 25.037508 ] } },
{ "type": "Feature", "properties": { "name": "海濱公園", "DivID": "CCTV190", "DivSrc": "https://fmg.wra.gov.tw/FMGP/SingeView?sn=190&ft=C&ht=0", "OpenName": "海濱公園", "OpenSrc": "https://fmg.wra.gov.tw/fmgp/ccd_proxy?sn=190", "provider": "水利署自建站" }, "geometry": { "type": "Point", "coordinates": [ 121.1586916, 22.7499138 ] } },
{ "type": "Feature", "properties": { "name": "塭港", "DivID": "CCTV387", "DivSrc": "https://fmg.wra.gov.tw/FMGP/SingeView?sn=387&ft=C&ht=0", "OpenName": "塭港", "OpenSrc": "https://fmg.wra.gov.tw/fmgp/ccd_proxy?sn=387", "provider": "水利署自建站" }, "geometry": { "type": "Point", "coordinates": [ 120.14552, 23.466655 ] } },
{ "type": "Feature", "properties": { "name": "塭豐海堤", "DivID": "CCTV488", "DivSrc": "https://fmg.wra.gov.tw/FMGP/SingeView?sn=488&ft=C&ht=0", "OpenName": "塭豐海堤", "OpenSrc": "https://fmg.wra.gov.tw/fmgp/ccd_proxy?sn=488", "provider": "水利署自建站" }, "geometry": { "type": "Point", "coordinates": [ 120.52021, 22.4102527 ] } },
{ "type": "Feature", "properties": { "name": "後湖堤防(固定)", "DivID": "CCTV489", "DivSrc": "https://fmg.wra.gov.tw/FMGP/SingeView?sn=489&ft=C&ht=0", "OpenName": "後湖堤防", "OpenSrc": "https://fmg.wra.gov.tw/fmgp/ccd_proxy?sn=489", "provider": "水利署自建站" }, "geometry": { "type": "Point", "coordinates": [ 120.4504416, 23.5141527 ] } },
{ "type": "Feature", "properties": { "name": "馬鞍壩_1(旁收台電)", "DivID": "CCTV707", "DivSrc": "https://fmg.wra.gov.tw/FMGP/SingeView?sn=707&ft=C&ht=0", "OpenName": "馬鞍壩(台電提供)", "OpenSrc": "https://fmg.wra.gov.tw/fmgp/ccd_proxy?sn=707", "provider": "水利署自建站" }, "geometry": { "type": "Point", "coordinates": [ 120.91346, 24.18513 ] } },
{ "type": "Feature", "properties": { "name": "天輪壩_進水口(旁收台電)", "DivID": "CCTV709", "DivSrc": "https://fmg.wra.gov.tw/FMGP/SingeView?sn=709&ft=C&ht=0", "OpenName": "天輪壩(台電提供)", "OpenSrc": "https://fmg.wra.gov.tw/fmgp/ccd_proxy?sn=709", "provider": "水利署自建站" }, "geometry": { "type": "Point", "coordinates": [ 121.015649, 24.211093 ] } },
{ "type": "Feature", "properties": { "name": "天輪壩_沉沙池水位(旁收台電)", "DivID": "CCTV710", "DivSrc": "https://fmg.wra.gov.tw/FMGP/SingeView?sn=710&ft=C&ht=0", "OpenName": "天輪壩(台電提供)", "OpenSrc": "https://fmg.wra.gov.tw/fmgp/ccd_proxy?sn=710", "provider": "水利署自建站" }, "geometry": { "type": "Point", "coordinates": [ 121.015649, 24.211093 ] } },
{ "type": "Feature", "properties": { "name": "天輪壩(旁收台電)", "DivID": "CCTV711", "DivSrc": "https://fmg.wra.gov.tw/FMGP/SingeView?sn=711&ft=C&ht=0", "OpenName": "天輪壩(台電提供)", "OpenSrc": "https://fmg.wra.gov.tw/fmgp/ccd_proxy?sn=711", "provider": "水利署自建站" }, "geometry": { "type": "Point", "coordinates": [ 121.015649, 24.211093 ] } },
{ "type": "Feature", "properties": { "name": "天輪壩_沉沙池進水口(旁收台電)", "DivID": "CCTV712", "DivSrc": "https://fmg.wra.gov.tw/FMGP/SingeView?sn=712&ft=C&ht=0", "OpenName": "天輪壩(台電提供)", "OpenSrc": "https://fmg.wra.gov.tw/fmgp/ccd_proxy?sn=712", "provider": "水利署自建站" }, "geometry": { "type": "Point", "coordinates": [ 121.015649, 24.211093 ] } },
{ "type": "Feature", "properties": { "name": "谷關壩(旁收台電)", "DivID": "CCTV713", "DivSrc": "https://fmg.wra.gov.tw/FMGP/SingeView?sn=713&ft=C&ht=0", "OpenName": "谷關壩(台電提供)", "OpenSrc": "https://fmg.wra.gov.tw/fmgp/ccd_proxy?sn=713", "provider": "水利署自建站" }, "geometry": { "type": "Point", "coordinates": [ 121.07765, 24.23401 ] } },
{ "type": "Feature", "properties": { "name": "谷關壩_青山側公路(旁收台電)", "DivID": "CCTV714", "DivSrc": "https://fmg.wra.gov.tw/FMGP/SingeView?sn=714&ft=C&ht=0", "OpenName": "谷關壩(台電提供)", "OpenSrc": "https://fmg.wra.gov.tw/fmgp/ccd_proxy?sn=714", "provider": "水利署自建站" }, "geometry": { "type": "Point", "coordinates": [ 121.07765, 24.23401 ] } },
{ "type": "Feature", "properties": { "name": "青山壩_1(旁收台電)", "DivID": "CCTV715", "DivSrc": "https://fmg.wra.gov.tw/FMGP/SingeView?sn=715&ft=C&ht=0", "OpenName": "青山壩(台電提供)", "OpenSrc": "https://fmg.wra.gov.tw/fmgp/ccd_proxy?sn=715", "provider": "水利署自建站" }, "geometry": { "type": "Point", "coordinates": [ 121.16011, 24.25327 ] } },
{ "type": "Feature", "properties": { "name": "樹林鐵路橋(介接十河局)", "DivID": "CCTV782", "DivSrc": "https://fmg.wra.gov.tw/FMGP/SingeView?sn=782&ft=C&ht=0", "OpenName": "樹林鐵路橋(介接十河局)", "OpenSrc": "https://fmg.wra.gov.tw/fmgp/ccd_proxy?sn=782", "provider": "水利署自建站" }, "geometry": { "type": "Point", "coordinates": [ 121.436052, 25.003926 ] } },
{ "type": "Feature", "properties": { "name": "社子島(介接十河局)", "DivID": "CCTV783", "DivSrc": "https://fmg.wra.gov.tw/FMGP/SingeView?sn=783&ft=C&ht=0", "OpenName": "社子島(介接十河局)", "OpenSrc": null, "provider": "水利署自建站" }, "geometry": { "type": "Point", "coordinates": [ 121.466192, 25.109442 ] } },
{ "type": "Feature", "properties": { "name": "台北橋(介接十河局)", "DivID": "CCTV784", "DivSrc": "https://fmg.wra.gov.tw/FMGP/SingeView?sn=784&ft=C&ht=0", "OpenName": "台北橋(介接十河局)", "OpenSrc": null, "provider": "水利署自建站" }, "geometry": { "type": "Point", "coordinates": [ 121.504602, 25.065044 ] } },
{ "type": "Feature", "properties": { "name": "廣興(介接十河局)", "DivID": "CCTV1558", "DivSrc": "https://fmg.wra.gov.tw/FMGP/SingeView?sn=1558&ft=C&ht=0", "OpenName": "廣興(介接十河局)", "OpenSrc": "https://fmg.wra.gov.tw/fmgp/ccd_proxy?sn=1558", "provider": "水利署自建站" }, "geometry": { "type": "Point", "coordinates": [ 121.535431, 24.912651 ] } },
{ "type": "Feature", "properties": { "name": "長福橋", "DivID": "CCTV1560", "DivSrc": "https://fmg.wra.gov.tw/FMGP/SingeView?sn=1560&ft=C&ht=0", "OpenName": "長福橋", "OpenSrc": "https://fmg.wra.gov.tw/fmgp/ccd_proxy?sn=1560", "provider": "水利署自建站" }, "geometry": { "type": "Point", "coordinates": [ 121.373104, 24.933772 ] } },
{ "type": "Feature", "properties": { "name": "福德坑溪", "DivID": "CCTV1561", "DivSrc": "https://fmg.wra.gov.tw/FMGP/SingeView?sn=1561&ft=C&ht=0", "OpenName": "福德坑溪", "OpenSrc": "https://fmg.wra.gov.tw/fmgp/ccd_proxy?sn=1561", "provider": "水利署自建站" }, "geometry": { "type": "Point", "coordinates": [ 121.371641, 24.932739 ] } },
{ "type": "Feature", "properties": { "name": "四重溪車城橋(固)", "DivID": "CCTV1568", "DivSrc": "https://fmg.wra.gov.tw/FMGP/SingeView?sn=1568&ft=C&ht=0", "OpenName": "四重溪車城橋", "OpenSrc": "https://fmg.wra.gov.tw/fmgp/ccd_proxy?sn=1568", "provider": "水利署自建站" }, "geometry": { "type": "Point", "coordinates": [ 120.7137, 22.068458 ] } },
{ "type": "Feature", "properties": { "name": "寶來一號橋_1(介接七河局)", "DivID": "CCTV1582", "DivSrc": "https://fmg.wra.gov.tw/FMGP/SingeView?sn=1582&ft=C&ht=0", "OpenName": "寶來一號橋站(介接七河局)", "OpenSrc": null, "provider": "水利署自建站" }, "geometry": { "type": "Point", "coordinates": [ 120.69466, 23.104935 ] } },
{ "type": "Feature", "properties": { "name": "寶來一號橋下游河段(介接七河局)", "DivID": "CCTV1583", "DivSrc": "https://fmg.wra.gov.tw/FMGP/SingeView?sn=1583&ft=C&ht=0", "OpenName": "寶來一號橋站(介接七河局)", "OpenSrc": null, "provider": "水利署自建站" }, "geometry": { "type": "Point", "coordinates": [ 120.69466, 23.104935 ] } },
{ "type": "Feature", "properties": { "name": "寶來一號橋_2(介接七河局)", "DivID": "CCTV1584", "DivSrc": "https://fmg.wra.gov.tw/FMGP/SingeView?sn=1584&ft=C&ht=0", "OpenName": "寶來一號橋站(介接七河局)", "OpenSrc": null, "provider": "水利署自建站" }, "geometry": { "type": "Point", "coordinates": [ 120.69466, 23.104935 ] } },
{ "type": "Feature", "properties": { "name": "甲仙大橋上游河段(介接七河局)", "DivID": "CCTV1586", "DivSrc": "https://fmg.wra.gov.tw/FMGP/SingeView?sn=1586&ft=C&ht=0", "OpenName": "甲仙大橋站(介接七河局)", "OpenSrc": null, "provider": "水利署自建站" }, "geometry": { "type": "Point", "coordinates": [ 120.584029, 23.081345 ] } },
{ "type": "Feature", "properties": { "name": "甲仙大橋_1(介接七河局)", "DivID": "CCTV1587", "DivSrc": "https://fmg.wra.gov.tw/FMGP/SingeView?sn=1587&ft=C&ht=0", "OpenName": "甲仙大橋站(介接七河局)", "OpenSrc": null, "provider": "水利署自建站" }, "geometry": { "type": "Point", "coordinates": [ 120.584029, 23.081345 ] } },
{ "type": "Feature", "properties": { "name": "新威大橋下游河段(介接七河局)", "DivID": "CCTV1589", "DivSrc": "https://fmg.wra.gov.tw/FMGP/SingeView?sn=1589&ft=C&ht=0", "OpenName": "新威大橋(介接七河局)", "OpenSrc": null, "provider": "水利署自建站" }, "geometry": { "type": "Point", "coordinates": [ 120.644328, 22.886541 ] } },
{ "type": "Feature", "properties": { "name": "新威大橋_1(介接七河局)", "DivID": "CCTV1590", "DivSrc": "https://fmg.wra.gov.tw/FMGP/SingeView?sn=1590&ft=C&ht=0", "OpenName": "新威大橋(介接七河局)", "OpenSrc": null, "provider": "水利署自建站" }, "geometry": { "type": "Point", "coordinates": [ 120.644328, 22.886541 ] } },
{ "type": "Feature", "properties": { "name": "六龜大橋_1(介接七河局)", "DivID": "CCTV1591", "DivSrc": "https://fmg.wra.gov.tw/FMGP/SingeView?sn=1591&ft=C&ht=0", "OpenName": "六龜大橋(介接七河局)", "OpenSrc": null, "provider": "水利署自建站" }, "geometry": { "type": "Point", "coordinates": [ 120.639714, 22.995971 ] } },
{ "type": "Feature", "properties": { "name": "六龜大橋下游河段(介接七河局)", "DivID": "CCTV1592", "DivSrc": "https://fmg.wra.gov.tw/FMGP/SingeView?sn=1592&ft=C&ht=0", "OpenName": "六龜大橋(介接七河局)", "OpenSrc": null, "provider": "水利署自建站" }, "geometry": { "type": "Point", "coordinates": [ 120.639714, 22.995971 ] } },
{ "type": "Feature", "properties": { "name": "旗山鐵橋(介接七河局)", "DivID": "CCTV1594", "DivSrc": "https://fmg.wra.gov.tw/FMGP/SingeView?sn=1594&ft=C&ht=0", "OpenName": "旗尾河濱公園主站(介接七河局)", "OpenSrc": null, "provider": "水利署自建站" }, "geometry": { "type": "Point", "coordinates": [ 120.485548, 22.888106 ] } },
{ "type": "Feature", "properties": { "name": "旗山橋旁堤防(介接七河局)", "DivID": "CCTV1595", "DivSrc": "https://fmg.wra.gov.tw/FMGP/SingeView?sn=1595&ft=C&ht=0", "OpenName": "旗尾河濱公園主站(介接七河局)", "OpenSrc": null, "provider": "水利署自建站" }, "geometry": { "type": "Point", "coordinates": [ 120.485548, 22.888106 ] } },
{ "type": "Feature", "properties": { "name": "新旗尾橋(介接七河局)", "DivID": "CCTV1597", "DivSrc": "https://fmg.wra.gov.tw/FMGP/SingeView?sn=1597&ft=C&ht=0", "OpenName": "旗尾河濱公園副站(介接七河局)", "OpenSrc": null, "provider": "水利署自建站" }, "geometry": { "type": "Point", "coordinates": [ 120.490897, 22.880193 ] } },
{ "type": "Feature", "properties": { "name": "旗山橋(介接七河局)", "DivID": "CCTV1598", "DivSrc": "https://fmg.wra.gov.tw/FMGP/SingeView?sn=1598&ft=C&ht=0", "OpenName": "旗尾河濱公園副站(介接七河局)", "OpenSrc": null, "provider": "水利署自建站" }, "geometry": { "type": "Point", "coordinates": [ 120.490897, 22.880193 ] } },
{ "type": "Feature", "properties": { "name": "成德橋(介接七河局)", "DivID": "CCTV1599", "DivSrc": "https://fmg.wra.gov.tw/FMGP/SingeView?sn=1599&ft=C&ht=0", "OpenName": "成德橋(介接七河局)", "OpenSrc": null, "provider": "水利署自建站" }, "geometry": { "type": "Point", "coordinates": [ 120.589845, 22.613153 ] } },
{ "type": "Feature", "properties": { "name": "成德橋上游河段(介接七河局)", "DivID": "CCTV1600", "DivSrc": "https://fmg.wra.gov.tw/FMGP/SingeView?sn=1600&ft=C&ht=0", "OpenName": "成德橋(介接七河局)", "OpenSrc": null, "provider": "水利署自建站" }, "geometry": { "type": "Point", "coordinates": [ 120.589845, 22.613153 ] } },
{ "type": "Feature", "properties": { "name": "潮洲大橋(介接七河局)", "DivID": "CCTV1601", "DivSrc": "https://fmg.wra.gov.tw/FMGP/SingeView?sn=1601&ft=C&ht=0", "OpenName": "潮洲大橋(介接七河局)", "OpenSrc": null, "provider": "水利署自建站" }, "geometry": { "type": "Point", "coordinates": [ 120.539487, 22.563471 ] } },
{ "type": "Feature", "properties": { "name": "潮洲大橋下游河段(介接七河局)", "DivID": "CCTV1602", "DivSrc": "https://fmg.wra.gov.tw/FMGP/SingeView?sn=1602&ft=C&ht=0", "OpenName": "潮洲大橋(介接七河局)", "OpenSrc": null, "provider": "水利署自建站" }, "geometry": { "type": "Point", "coordinates": [ 120.539487, 22.563471 ] } },
{ "type": "Feature", "properties": { "name": "港東二號橋下游河段(介接七河局)", "DivID": "CCTV1603", "DivSrc": "https://fmg.wra.gov.tw/FMGP/SingeView?sn=1603&ft=C&ht=0", "OpenName": "港東二號橋(介接七河局)", "OpenSrc": null, "provider": "水利署自建站" }, "geometry": { "type": "Point", "coordinates": [ 120.477101, 22.51823 ] } },
{ "type": "Feature", "properties": { "name": "進德大橋(介接七河局)", "DivID": "CCTV1606", "DivSrc": "https://fmg.wra.gov.tw/FMGP/SingeView?sn=1606&ft=C&ht=0", "OpenName": "進德大橋(介接七河局)", "OpenSrc": null, "provider": "水利署自建站" }, "geometry": { "type": "Point", "coordinates": [ 120.447801, 22.469476 ] } },
{ "type": "Feature", "properties": { "name": "進德大橋上游堤防(介接七河局)", "DivID": "CCTV1607", "DivSrc": "https://fmg.wra.gov.tw/FMGP/SingeView?sn=1607&ft=C&ht=0", "OpenName": "進德大橋(介接七河局)", "OpenSrc": null, "provider": "水利署自建站" }, "geometry": { "type": "Point", "coordinates": [ 120.447801, 22.469476 ] } },
{ "type": "Feature", "properties": { "name": "新埔橋(固定)", "DivID": "CCTV1608", "DivSrc": "https://fmg.wra.gov.tw/FMGP/SingeView?sn=1608&ft=C&ht=0", "OpenName": "新埔橋", "OpenSrc": "https://fmg.wra.gov.tw/fmgp/ccd_proxy?sn=1608", "provider": "水利署自建站" }, "geometry": { "type": "Point", "coordinates": [ 121.065783, 24.824916 ] } },
{ "type": "Feature", "properties": { "name": "南湖二橋(固定)", "DivID": "CCTV1609", "DivSrc": "https://fmg.wra.gov.tw/FMGP/SingeView?sn=1609&ft=C&ht=0", "OpenName": "南湖二橋", "OpenSrc": "https://fmg.wra.gov.tw/fmgp/ccd_proxy?sn=1609", "provider": "水利署自建站" }, "geometry": { "type": "Point", "coordinates": [ 120.868575, 24.398625 ] } },
{ "type": "Feature", "properties": { "name": "典寶溪(固)", "DivID": "CCTV1610", "DivSrc": "https://fmg.wra.gov.tw/FMGP/SingeView?sn=1610&ft=C&ht=0", "OpenName": "典寶溪", "OpenSrc": "https://fmg.wra.gov.tw/fmgp/ccd_proxy?sn=1610", "provider": "水利署自建站" }, "geometry": { "type": "Point", "coordinates": [ 120.275, 22.767644 ] } },
{ "type": "Feature", "properties": { "name": "盧山橋(固)", "DivID": "CCTV1611", "DivSrc": "https://fmg.wra.gov.tw/FMGP/SingeView?sn=1611&ft=C&ht=0", "OpenName": "盧山橋", "OpenSrc": "https://fmg.wra.gov.tw/fmgp/ccd_proxy?sn=1611", "provider": "水利署自建站" }, "geometry": { "type": "Point", "coordinates": [ 120.47888, 23.504408 ] } },
{ "type": "Feature", "properties": { "name": "隘寮溪三地門大橋(固)", "DivID": "CCTV1641", "DivSrc": "https://fmg.wra.gov.tw/FMGP/SingeView?sn=1641&ft=C&ht=0", "OpenName": "隘寮溪三地門大橋", "OpenSrc": "https://fmg.wra.gov.tw/fmgp/ccd_proxy?sn=1641", "provider": "水利署自建站" }, "geometry": { "type": "Point", "coordinates": [ 120.645841, 22.711633 ] } },
{ "type": "Feature", "properties": { "name": "美濃橋(固)", "DivID": "CCTV1642", "DivSrc": "https://fmg.wra.gov.tw/FMGP/SingeView?sn=1642&ft=C&ht=0", "OpenName": "美濃溪美濃橋", "OpenSrc": "https://fmg.wra.gov.tw/fmgp/ccd_proxy?sn=1642", "provider": "水利署自建站" }, "geometry": { "type": "Point", "coordinates": [ 120.542488, 22.8988416 ] } },
{ "type": "Feature", "properties": { "name": "覽勝橋(旋)", "DivID": "CCTV1764", "DivSrc": "https://fmg.wra.gov.tw/FMGP/SingeView?sn=1764&ft=C&ht=0", "OpenName": "覽勝橋", "OpenSrc": "https://fmg.wra.gov.tw/fmgp/ccd_proxy?sn=1764", "provider": "水利署自建站" }, "geometry": { "type": "Point", "coordinates": [ 121.551313, 24.861749 ] } },
{ "type": "Feature", "properties": { "name": "覽勝橋(固)", "DivID": "CCTV1765", "DivSrc": "https://fmg.wra.gov.tw/FMGP/SingeView?sn=1765&ft=C&ht=0", "OpenName": "覽勝橋", "OpenSrc": null, "provider": "水利署自建站" }, "geometry": { "type": "Point", "coordinates": [ 121.551313, 24.861749 ] } },
{ "type": "Feature", "properties": { "name": "長福橋_水尺", "DivID": "CCTV1766", "DivSrc": "https://fmg.wra.gov.tw/FMGP/SingeView?sn=1766&ft=C&ht=0", "OpenName": "長福橋", "OpenSrc": "https://fmg.wra.gov.tw/fmgp/ccd_proxy?sn=1766", "provider": "水利署自建站" }, "geometry": { "type": "Point", "coordinates": [ 121.373104, 24.933772 ] } },
{ "type": "Feature", "properties": { "name": "忘憂亭(旋轉)", "DivID": "CCTV1769", "DivSrc": "https://fmg.wra.gov.tw/FMGP/SingeView?sn=1769&ft=C&ht=0", "OpenName": "忘憂亭", "OpenSrc": "https://fmg.wra.gov.tw/fmgp/ccd_proxy?sn=1769", "provider": "水利署自建站" }, "geometry": { "type": "Point", "coordinates": [ 121.61277, 23.969608 ] } },
{ "type": "Feature", "properties": { "name": "忘憂亭(固)", "DivID": "CCTV1770", "DivSrc": "https://fmg.wra.gov.tw/FMGP/SingeView?sn=1770&ft=C&ht=0", "OpenName": "忘憂亭", "OpenSrc": "https://fmg.wra.gov.tw/fmgp/ccd_proxy?sn=1770", "provider": "水利署自建站" }, "geometry": { "type": "Point", "coordinates": [ 121.61277, 23.969608 ] } },
{ "type": "Feature", "properties": { "name": "中原水門(固)", "DivID": "CCTV1771", "DivSrc": "https://fmg.wra.gov.tw/FMGP/SingeView?sn=1771&ft=C&ht=0", "OpenName": "中原水門", "OpenSrc": null, "provider": "水利署自建站" }, "geometry": { "type": "Point", "coordinates": [ 121.4900527, 25.010036 ] } },
{ "type": "Feature", "properties": { "name": "中原水門(旋轉)", "DivID": "CCTV1772", "DivSrc": "https://fmg.wra.gov.tw/FMGP/SingeView?sn=1772&ft=C&ht=0", "OpenName": "中原水門", "OpenSrc": null, "provider": "水利署自建站" }, "geometry": { "type": "Point", "coordinates": [ 121.4900527, 25.010036 ] } },
{ "type": "Feature", "properties": { "name": "七星潭(固)", "DivID": "CCTV1773", "DivSrc": "https://fmg.wra.gov.tw/FMGP/SingeView?sn=1773&ft=C&ht=0", "OpenName": "七星潭安檢所", "OpenSrc": null, "provider": "水利署自建站" }, "geometry": { "type": "Point", "coordinates": [ 121.631033, 24.027153 ] } },
{ "type": "Feature", "properties": { "name": "七星潭(旋轉)", "DivID": "CCTV1774", "DivSrc": "https://fmg.wra.gov.tw/FMGP/SingeView?sn=1774&ft=C&ht=0", "OpenName": "七星潭安檢所", "OpenSrc": null, "provider": "水利署自建站" }, "geometry": { "type": "Point", "coordinates": [ 121.631033, 24.027153 ] } },
{ "type": "Feature", "properties": { "name": "烏來福德宮(旋轉)", "DivID": "CCTV1775", "DivSrc": "https://fmg.wra.gov.tw/FMGP/SingeView?sn=1775&ft=C&ht=0", "OpenName": "烏來福德宮", "OpenSrc": null, "provider": "水利署自建站" }, "geometry": { "type": "Point", "coordinates": [ 121.550073, 24.866282 ] } },
{ "type": "Feature", "properties": { "name": "烏來福德宮(固)", "DivID": "CCTV1776", "DivSrc": "https://fmg.wra.gov.tw/FMGP/SingeView?sn=1776&ft=C&ht=0", "OpenName": "烏來福德宮", "OpenSrc": null, "provider": "水利署自建站" }, "geometry": { "type": "Point", "coordinates": [ 121.550073, 24.866282 ] } },
{ "type": "Feature", "properties": { "name": "二溪橋(介接六河局)", "DivID": "CCTV1787", "DivSrc": "https://fmg.wra.gov.tw/FMGP/SingeView?sn=1787&ft=C&ht=0", "OpenName": "二溪橋(介接六河局)", "OpenSrc": null, "provider": "水利署自建站" }, "geometry": { "type": "Point", "coordinates": [ 120.388528, 23.118582 ] } },
{ "type": "Feature", "properties": { "name": "北勢洲(介接六河局)", "DivID": "CCTV1788", "DivSrc": "https://fmg.wra.gov.tw/FMGP/SingeView?sn=1788&ft=C&ht=0", "OpenName": "北勢洲(介接六河局)", "OpenSrc": null, "provider": "水利署自建站" }, "geometry": { "type": "Point", "coordinates": [ 120.33181, 23.124616 ] } },
{ "type": "Feature", "properties": { "name": "國姓橋(介接六河局)", "DivID": "CCTV1789", "DivSrc": "https://fmg.wra.gov.tw/FMGP/SingeView?sn=1789&ft=C&ht=0", "OpenName": "國姓橋(介接六河局)", "OpenSrc": null, "provider": "水利署自建站" }, "geometry": { "type": "Point", "coordinates": [ 120.13342, 23.092091 ] } },
{ "type": "Feature", "properties": { "name": "曾文溪橋(介接六河局)", "DivID": "CCTV1790", "DivSrc": "https://fmg.wra.gov.tw/FMGP/SingeView?sn=1790&ft=C&ht=0", "OpenName": "曾文溪橋(介接六河局)", "OpenSrc": null, "provider": "水利署自建站" }, "geometry": { "type": "Point", "coordinates": [ 120.34353, 23.15289 ] } },
{ "type": "Feature", "properties": { "name": "玉峰橋(介接六河局)", "DivID": "CCTV1791", "DivSrc": "https://fmg.wra.gov.tw/FMGP/SingeView?sn=1791&ft=C&ht=0", "OpenName": "玉峰橋(介接六河局)", "OpenSrc": null, "provider": "水利署自建站" }, "geometry": { "type": "Point", "coordinates": [ 120.36354, 23.10699 ] } },
{ "type": "Feature", "properties": { "name": "番子田(介接六河局)", "DivID": "CCTV1792", "DivSrc": "https://fmg.wra.gov.tw/FMGP/SingeView?sn=1792&ft=C&ht=0", "OpenName": "番子田(介接六河局)", "OpenSrc": null, "provider": "水利署自建站" }, "geometry": { "type": "Point", "coordinates": [ 120.30352, 23.18049 ] } },
{ "type": "Feature", "properties": { "name": "西港橋(介接六河局)", "DivID": "CCTV1793", "DivSrc": "https://fmg.wra.gov.tw/FMGP/SingeView?sn=1793&ft=C&ht=0", "OpenName": "西港橋(介接六河局)", "OpenSrc": null, "provider": "水利署自建站" }, "geometry": { "type": "Point", "coordinates": [ 120.20373, 23.1121 ] } },
{ "type": "Feature", "properties": { "name": "觀月橋(介接六河局)", "DivID": "CCTV1794", "DivSrc": "https://fmg.wra.gov.tw/FMGP/SingeView?sn=1794&ft=C&ht=0", "OpenName": "觀月橋(介接六河局)", "OpenSrc": null, "provider": "水利署自建站" }, "geometry": { "type": "Point", "coordinates": [ 120.32608, 23.17071 ] } },
{ "type": "Feature", "properties": { "name": "麻善橋(介接六河局)", "DivID": "CCTV1795", "DivSrc": "https://fmg.wra.gov.tw/FMGP/SingeView?sn=1795&ft=C&ht=0", "OpenName": "麻善橋(介接六河局)", "OpenSrc": null, "provider": "水利署自建站" }, "geometry": { "type": "Point", "coordinates": [ 120.27709, 23.16145 ] } },
{ "type": "Feature", "properties": { "name": "南化水庫水尺(旁收台水)", "DivID": "CCTV1796", "DivSrc": "https://fmg.wra.gov.tw/FMGP/SingeView?sn=1796&ft=C&ht=0", "OpenName": "南化水庫(介接台水)", "OpenSrc": null, "provider": "水利署自建站" }, "geometry": { "type": "Point", "coordinates": [ 120.53687, 23.08654 ] } },
{ "type": "Feature", "properties": { "name": "南化水庫取水口(旁收台水)", "DivID": "CCTV1797", "DivSrc": "https://fmg.wra.gov.tw/FMGP/SingeView?sn=1797&ft=C&ht=0", "OpenName": "南化水庫(介接台水)", "OpenSrc": null, "provider": "水利署自建站" }, "geometry": { "type": "Point", "coordinates": [ 120.53687, 23.08654 ] } },
{ "type": "Feature", "properties": { "name": "鏡面水庫水尺(旁收台水)", "DivID": "CCTV1799", "DivSrc": "https://fmg.wra.gov.tw/FMGP/SingeView?sn=1799&ft=C&ht=0", "OpenName": "鏡面水庫(介接台水)", "OpenSrc": null, "provider": "水利署自建站" }, "geometry": { "type": "Point", "coordinates": [ 120.48769, 23.0584 ] } },
{ "type": "Feature", "properties": { "name": "鏡面水庫溢洪道(旁收台水)", "DivID": "CCTV1800", "DivSrc": "https://fmg.wra.gov.tw/FMGP/SingeView?sn=1800&ft=C&ht=0", "OpenName": "鏡面水庫(介接台水)", "OpenSrc": null, "provider": "水利署自建站" }, "geometry": { "type": "Point", "coordinates": [ 120.48769, 23.0584 ] } },
{ "type": "Feature", "properties": { "name": "大津橋(旋轉)", "DivID": "CCTV1835", "DivSrc": "https://fmg.wra.gov.tw/FMGP/SingeView?sn=1835&ft=C&ht=0", "OpenName": "大津橋", "OpenSrc": "https://fmg.wra.gov.tw/fmgp/ccd_proxy?sn=1835", "provider": "水利署自建站" }, "geometry": { "type": "Point", "coordinates": [ 120.646016, 22.88018 ] } },
{ "type": "Feature", "properties": { "name": "大津橋(固定)", "DivID": "CCTV1836", "DivSrc": "https://fmg.wra.gov.tw/FMGP/SingeView?sn=1836&ft=C&ht=0", "OpenName": "大津橋", "OpenSrc": "https://fmg.wra.gov.tw/fmgp/ccd_proxy?sn=1836", "provider": "水利署自建站" }, "geometry": { "type": "Point", "coordinates": [ 120.646016, 22.88018 ] } },
{ "type": "Feature", "properties": { "name": "尖山堤防(旋轉1)(介接六河局)", "DivID": "CCTV1837", "DivSrc": "https://fmg.wra.gov.tw/FMGP/SingeView?sn=1837&ft=C&ht=0", "OpenName": "尖山堤防(介接六河局)", "OpenSrc": "https://fmg.wra.gov.tw/fmgp/ccd_proxy?sn=1837", "provider": "水利署自建站" }, "geometry": { "type": "Point", "coordinates": [ 120.378566, 23.122275 ] } },
{ "type": "Feature", "properties": { "name": "尖山堤防(旋轉2)(介接六河局)", "DivID": "CCTV1838", "DivSrc": "https://fmg.wra.gov.tw/FMGP/SingeView?sn=1838&ft=C&ht=0", "OpenName": "尖山堤防(介接六河局)", "OpenSrc": null, "provider": "水利署自建站" }, "geometry": { "type": "Point", "coordinates": [ 120.378566, 23.122275 ] } },
{ "type": "Feature", "properties": { "name": "日新護岸(固)(介接六河局)", "DivID": "CCTV1840", "DivSrc": "https://fmg.wra.gov.tw/FMGP/SingeView?sn=1840&ft=C&ht=0", "OpenName": "日新護岸(介接六河局)", "OpenSrc": null, "provider": "水利署自建站" }, "geometry": { "type": "Point", "coordinates": [ 120.345919, 23.151675 ] } },
{ "type": "Feature", "properties": { "name": "八掌溪橋左岸(固定)", "DivID": "CCTV1841", "DivSrc": "https://fmg.wra.gov.tw/FMGP/SingeView?sn=1841&ft=C&ht=0", "OpenName": "八掌溪橋左岸", "OpenSrc": "https://fmg.wra.gov.tw/fmgp/ccd_proxy?sn=1841", "provider": "水利署自建站" }, "geometry": { "type": "Point", "coordinates": [ 120.381536, 23.402741 ] } },
{ "type": "Feature", "properties": { "name": "溪口橋(固)", "DivID": "CCTV1842", "DivSrc": "https://fmg.wra.gov.tw/FMGP/SingeView?sn=1842&ft=C&ht=0", "OpenName": "溪口橋", "OpenSrc": "https://fmg.wra.gov.tw/fmgp/ccd_proxy?sn=1842", "provider": "水利署自建站" }, "geometry": { "type": "Point", "coordinates": [ 120.40684, 23.6074916 ] } },
{ "type": "Feature", "properties": { "name": "黃金海岸(旋轉)", "DivID": "CCTV1843", "DivSrc": "https://fmg.wra.gov.tw/FMGP/SingeView?sn=1843&ft=C&ht=0", "OpenName": "黃金海岸", "OpenSrc": "https://fmg.wra.gov.tw/fmgp/ccd_proxy?sn=1843", "provider": "水利署自建站" }, "geometry": { "type": "Point", "coordinates": [ 120.1761527, 22.9312166 ] } },
{ "type": "Feature", "properties": { "name": "黃金海岸(固)", "DivID": "CCTV1844", "DivSrc": "https://fmg.wra.gov.tw/FMGP/SingeView?sn=1844&ft=C&ht=0", "OpenName": "黃金海岸", "OpenSrc": "https://fmg.wra.gov.tw/fmgp/ccd_proxy?sn=1844", "provider": "水利署自建站" }, "geometry": { "type": "Point", "coordinates": [ 120.1761527, 22.9312166 ] } },
{ "type": "Feature", "properties": { "name": "草地尾(介接十河局)", "DivID": "CCTV1845", "DivSrc": "https://fmg.wra.gov.tw/FMGP/SingeView?sn=1845&ft=C&ht=0", "OpenName": "草地尾(介接十河局)", "OpenSrc": "https://fmg.wra.gov.tw/fmgp/ccd_proxy?sn=1845", "provider": "水利署自建站" }, "geometry": { "type": "Point", "coordinates": [ 121.596103, 25.004133 ] } },
{ "type": "Feature", "properties": { "name": "立山站(固定)", "DivID": "CCTV1852", "DivSrc": "https://fmg.wra.gov.tw/FMGP/SingeView?sn=1852&ft=C&ht=0", "OpenName": "立山站", "OpenSrc": "https://fmg.wra.gov.tw/fmgp/ccd_proxy?sn=1852", "provider": "水利署自建站" }, "geometry": { "type": "Point", "coordinates": [ 121.313358, 23.430816 ] } },
{ "type": "Feature", "properties": { "name": "蚵寮國小(旋轉)", "DivID": "CCTV1853", "DivSrc": "https://fmg.wra.gov.tw/FMGP/SingeView?sn=1853&ft=C&ht=0", "OpenName": "蚵寮國小", "OpenSrc": "https://fmg.wra.gov.tw/fmgp/ccd_proxy?sn=1853", "provider": "水利署自建站" }, "geometry": { "type": "Point", "coordinates": [ 120.247912, 22.733117 ] } },
{ "type": "Feature", "properties": { "name": "蚵寮國小(旋轉)", "DivID": "CCTV1854", "DivSrc": "https://fmg.wra.gov.tw/FMGP/SingeView?sn=1854&ft=C&ht=0", "OpenName": "蚵寮國小", "OpenSrc": "https://fmg.wra.gov.tw/fmgp/ccd_proxy?sn=1854", "provider": "水利署自建站" }, "geometry": { "type": "Point", "coordinates": [ 120.247912, 22.733117 ] } },
{ "type": "Feature", "properties": { "name": "尚志橋(固)", "DivID": "CCTV1855", "DivSrc": "https://fmg.wra.gov.tw/FMGP/SingeView?sn=1855&ft=C&ht=0", "OpenName": "尚志橋", "OpenSrc": "https://fmg.wra.gov.tw/fmgp/ccd_proxy?sn=1855", "provider": "水利署自建站" }, "geometry": { "type": "Point", "coordinates": [ 121.61076, 23.9840416 ] } },
{ "type": "Feature", "properties": { "name": "南濱守望哨(固)", "DivID": "CCTV1862", "DivSrc": "https://fmg.wra.gov.tw/FMGP/SingeView?sn=1862&ft=C&ht=0", "OpenName": "南濱守望哨", "OpenSrc": "https://fmg.wra.gov.tw/fmgp/ccd_proxy?sn=1862", "provider": "水利署自建站" }, "geometry": { "type": "Point", "coordinates": [ 121.60695, 23.962397 ] } },
{ "type": "Feature", "properties": { "name": "南濱守望哨(旋轉)", "DivID": "CCTV1863", "DivSrc": "https://fmg.wra.gov.tw/FMGP/SingeView?sn=1863&ft=C&ht=0", "OpenName": "南濱守望哨", "OpenSrc": "https://fmg.wra.gov.tw/fmgp/ccd_proxy?sn=1863", "provider": "水利署自建站" }, "geometry": { "type": "Point", "coordinates": [ 121.60695, 23.962397 ] } },
{ "type": "Feature", "properties": { "name": "南濱守望哨(熱感)", "DivID": "CCTV1864", "DivSrc": "https://fmg.wra.gov.tw/FMGP/SingeView?sn=1864&ft=C&ht=0", "OpenName": "南濱守望哨", "OpenSrc": "https://fmg.wra.gov.tw/fmgp/ccd_proxy?sn=1864", "provider": "水利署自建站" }, "geometry": { "type": "Point", "coordinates": [ 121.60695, 23.962397 ] } },
{ "type": "Feature", "properties": { "name": "花蓮大橋_固定", "DivID": "CCTV1916", "DivSrc": "https://fmg.wra.gov.tw/FMGP/SingeView?sn=1916&ft=C&ht=0", "OpenName": "花蓮大橋", "OpenSrc": "https://fmg.wra.gov.tw/fmgp/ccd_proxy?sn=1916", "provider": "水利署自建站" }, "geometry": { "type": "Point", "coordinates": [ 121.600448, 23.922948 ] } },
{ "type": "Feature", "properties": { "name": "花蓮大橋_旋轉", "DivID": "CCTV1917", "DivSrc": "https://fmg.wra.gov.tw/FMGP/SingeView?sn=1917&ft=C&ht=0", "OpenName": "花蓮大橋", "OpenSrc": "https://fmg.wra.gov.tw/fmgp/ccd_proxy?sn=1917", "provider": "水利署自建站" }, "geometry": { "type": "Point", "coordinates": [ 121.600448, 23.922948 ] } },
{ "type": "Feature", "properties": { "name": "前州橋警報水位站(介接南水局)", "DivID": "CCTV2057", "DivSrc": "https://fmg.wra.gov.tw/FMGP/SingeView?sn=2057&ft=C&ht=0", "OpenName": "前州橋警報水位站(介接南水局)", "OpenSrc": null, "provider": "水利署自建站" }, "geometry": { "type": "Point", "coordinates": [ 120.279388888889002, 22.802583333333299 ] } },
{ "type": "Feature", "properties": { "name": "壽峰橋警報水位站(介接南水局)", "DivID": "CCTV2058", "DivSrc": "https://fmg.wra.gov.tw/FMGP/SingeView?sn=2058&ft=C&ht=0", "OpenName": "壽峰橋警報水位站(介接南水局)", "OpenSrc": null, "provider": "水利署自建站" }, "geometry": { "type": "Point", "coordinates": [ 120.287527777777996, 22.7985 ] } },
{ "type": "Feature", "properties": { "name": "新觀音橋警報水位站(介接南水局)", "DivID": "CCTV2059", "DivSrc": "https://fmg.wra.gov.tw/FMGP/SingeView?sn=2059&ft=C&ht=0", "OpenName": "新觀音橋警報水位站(介接南水局)", "OpenSrc": null, "provider": "水利署自建站" }, "geometry": { "type": "Point", "coordinates": [ 120.313723, 22.788391 ] } },
{ "type": "Feature", "properties": { "name": "新阿公店橋警報站(介接南水局)", "DivID": "CCTV2060", "DivSrc": "https://fmg.wra.gov.tw/FMGP/SingeView?sn=2060&ft=C&ht=0", "OpenName": "新阿公店橋警報站(介接南水局)", "OpenSrc": null, "provider": "水利署自建站" }, "geometry": { "type": "Point", "coordinates": [ 120.2995, 22.785694444444399 ] } },
{ "type": "Feature", "properties": { "name": "林園海堤(固)", "DivID": "CCTV2061", "DivSrc": "https://fmg.wra.gov.tw/FMGP/SingeView?sn=2061&ft=C&ht=0", "OpenName": "林園海堤", "OpenSrc": "https://fmg.wra.gov.tw/fmgp/ccd_proxy?sn=2061", "provider": "水利署自建站" }, "geometry": { "type": "Point", "coordinates": [ 120.382736, 22.492279 ] } },
{ "type": "Feature", "properties": { "name": "林園海堤(旋)", "DivID": "CCTV2062", "DivSrc": "https://fmg.wra.gov.tw/FMGP/SingeView?sn=2062&ft=C&ht=0", "OpenName": "林園海堤", "OpenSrc": "https://fmg.wra.gov.tw/fmgp/ccd_proxy?sn=2062", "provider": "水利署自建站" }, "geometry": { "type": "Point", "coordinates": [ 120.382736, 22.492279 ] } },
{ "type": "Feature", "properties": { "name": "聖興橋(旋轉鏡頭)", "DivID": "CCTV2070", "DivSrc": "https://fmg.wra.gov.tw/FMGP/SingeView?sn=2070&ft=C&ht=0", "OpenName": "聖興橋", "OpenSrc": "https://fmg.wra.gov.tw/fmgp/ccd_proxy?sn=2070", "provider": "水利署自建站" }, "geometry": { "type": "Point", "coordinates": [ 120.329877, 22.74665 ] } },
{ "type": "Feature", "properties": { "name": "聖興橋(固定鏡頭)", "DivID": "CCTV2071", "DivSrc": "https://fmg.wra.gov.tw/FMGP/SingeView?sn=2071&ft=C&ht=0", "OpenName": "聖興橋", "OpenSrc": "https://fmg.wra.gov.tw/fmgp/ccd_proxy?sn=2071", "provider": "水利署自建站" }, "geometry": { "type": "Point", "coordinates": [ 120.329877, 22.74665 ] } },
{ "type": "Feature", "properties": { "name": "L10大洲排水(旁收南科管理局)", "DivID": "CCTV2072", "DivSrc": "https://fmg.wra.gov.tw/FMGP/SingeView?sn=2072&ft=C&ht=0", "OpenName": "L10大洲排水(南科管理局提供)", "OpenSrc": null, "provider": "水利署自建站" }, "geometry": { "type": "Point", "coordinates": [ 120.286917, 23.092611 ] } },
{ "type": "Feature", "properties": { "name": "大洲大社排水匯流(旁收南科管理局)", "DivID": "CCTV2073", "DivSrc": "https://fmg.wra.gov.tw/FMGP/SingeView?sn=2073&ft=C&ht=0", "OpenName": "大洲大社排水匯流(南科管理局提供)", "OpenSrc": null, "provider": "水利署自建站" }, "geometry": { "type": "Point", "coordinates": [ 120.287889, 23.096694 ] } },
{ "type": "Feature", "properties": { "name": "A3道爺湖(旁收南科管理局)", "DivID": "CCTV2074", "DivSrc": "https://fmg.wra.gov.tw/FMGP/SingeView?sn=2074&ft=C&ht=0", "OpenName": "A3道爺湖(南科管理局提供)", "OpenSrc": null, "provider": "水利署自建站" }, "geometry": { "type": "Point", "coordinates": [ 120.278083, 23.099861 ] } },
{ "type": "Feature", "properties": { "name": "C2三抱竹湖(旁收南科管理局)", "DivID": "CCTV2075", "DivSrc": "https://fmg.wra.gov.tw/FMGP/SingeView?sn=2075&ft=C&ht=0", "OpenName": "C2三抱竹湖(南科管理局提供)", "OpenSrc": null, "provider": "水利署自建站" }, "geometry": { "type": "Point", "coordinates": [ 120.267556, 23.116417 ] } },
{ "type": "Feature", "properties": { "name": "D5迎曦湖(旁收南科管理局)", "DivID": "CCTV2076", "DivSrc": "https://fmg.wra.gov.tw/FMGP/SingeView?sn=2076&ft=C&ht=0", "OpenName": "D5迎曦湖(南科管理局提供)", "OpenSrc": null, "provider": "水利署自建站" }, "geometry": { "type": "Point", "coordinates": [ 120.285306, 23.089889 ] } },
{ "type": "Feature", "properties": { "name": "安順寮排水三抱竹路(旁收南科管理局)", "DivID": "CCTV2077", "DivSrc": "https://fmg.wra.gov.tw/FMGP/SingeView?sn=2077&ft=C&ht=0", "OpenName": "安順寮排水三抱竹路(南科管理局提供)", "OpenSrc": null, "provider": "水利署自建站" }, "geometry": { "type": "Point", "coordinates": [ 120.266, 23.112556 ] } },
{ "type": "Feature", "properties": { "name": "E21舒湖(旁收南科管理局)", "DivID": "CCTV2078", "DivSrc": "https://fmg.wra.gov.tw/FMGP/SingeView?sn=2078&ft=C&ht=0", "OpenName": "E21舒湖(南科管理局提供)", "OpenSrc": null, "provider": "水利署自建站" }, "geometry": { "type": "Point", "coordinates": [ 120.270111, 23.103972 ] } },
{ "type": "Feature", "properties": { "name": "F1堤塘湖(旁收南科管理局)", "DivID": "CCTV2079", "DivSrc": "https://fmg.wra.gov.tw/FMGP/SingeView?sn=2079&ft=C&ht=0", "OpenName": "F1堤塘湖(南科管理局提供)", "OpenSrc": null, "provider": "水利署自建站" }, "geometry": { "type": "Point", "coordinates": [ 120.267028, 23.090583 ] } },
{ "type": "Feature", "properties": { "name": "大洲新市排水匯流(旁收南科管理局)", "DivID": "CCTV2080", "DivSrc": "https://fmg.wra.gov.tw/FMGP/SingeView?sn=2080&ft=C&ht=0", "OpenName": "大洲新市排水匯流(南科管理局提供)", "OpenSrc": null, "provider": "水利署自建站" }, "geometry": { "type": "Point", "coordinates": [ 120.276917, 23.080278 ] } },
{ "type": "Feature", "properties": { "name": "霞客湖(旁收南科管理局)", "DivID": "CCTV2081", "DivSrc": "https://fmg.wra.gov.tw/FMGP/SingeView?sn=2081&ft=C&ht=0", "OpenName": "霞客湖(南科管理局提供)", "OpenSrc": null, "provider": "水利署自建站" }, "geometry": { "type": "Point", "coordinates": [ 120.27075, 23.104639 ] } },
{ "type": "Feature", "properties": { "name": "大洲座駕排水匯流(旁收南科管理局)", "DivID": "CCTV2082", "DivSrc": "https://fmg.wra.gov.tw/FMGP/SingeView?sn=2082&ft=C&ht=0", "OpenName": "大洲座駕排水匯流(南科管理局提供)", "OpenSrc": null, "provider": "水利署自建站" }, "geometry": { "type": "Point", "coordinates": [ 120.287083, 23.104333 ] } },
{ "type": "Feature", "properties": { "name": "L2滯洪池B(旁收南科管理局)", "DivID": "CCTV2083", "DivSrc": "https://fmg.wra.gov.tw/FMGP/SingeView?sn=2083&ft=C&ht=0", "OpenName": "L2滯洪池B(南科管理局提供)", "OpenSrc": null, "provider": "水利署自建站" }, "geometry": { "type": "Point", "coordinates": [ 120.251583, 22.824306 ] } },
{ "type": "Feature", "properties": { "name": "L2滯洪池B水尺(旁收南科管理局)", "DivID": "CCTV2084", "DivSrc": "https://fmg.wra.gov.tw/FMGP/SingeView?sn=2084&ft=C&ht=0", "OpenName": "L2滯洪池B水尺(南科管理局提供)", "OpenSrc": null, "provider": "水利署自建站" }, "geometry": { "type": "Point", "coordinates": [ 120.251611, 22.824278 ] } },
{ "type": "Feature", "properties": { "name": "L5維新橋(旁收南科管理局)", "DivID": "CCTV2085", "DivSrc": "https://fmg.wra.gov.tw/FMGP/SingeView?sn=2085&ft=C&ht=0", "OpenName": "L5維新橋(南科管理局提供)", "OpenSrc": null, "provider": "水利署自建站" }, "geometry": { "type": "Point", "coordinates": [ 120.243111, 22.812917 ] } },
{ "type": "Feature", "properties": { "name": "L1滯洪池A(旁收南科管理局)", "DivID": "CCTV2086", "DivSrc": "https://fmg.wra.gov.tw/FMGP/SingeView?sn=2086&ft=C&ht=0", "OpenName": "L1滯洪池A(南科管理局提供)", "OpenSrc": null, "provider": "水利署自建站" }, "geometry": { "type": "Point", "coordinates": [ 120.248861, 22.827389 ] } },
{ "type": "Feature", "properties": { "name": "L1滯洪池A水尺(旁收南科管理局)", "DivID": "CCTV2087", "DivSrc": "https://fmg.wra.gov.tw/FMGP/SingeView?sn=2087&ft=C&ht=0", "OpenName": "L1滯洪池A水尺(南科管理局提供)", "OpenSrc": null, "provider": "水利署自建站" }, "geometry": { "type": "Point", "coordinates": [ 120.248833, 22.827389 ] } },
{ "type": "Feature", "properties": { "name": "L7 滯洪池C(旁收南科管理局)", "DivID": "CCTV2088", "DivSrc": "https://fmg.wra.gov.tw/FMGP/SingeView?sn=2088&ft=C&ht=0", "OpenName": "L7 滯洪池C(南科管理局提供)", "OpenSrc": null, "provider": "水利署自建站" }, "geometry": { "type": "Point", "coordinates": [ 120.280222, 22.824528 ] } },
{ "type": "Feature", "properties": { "name": "L7滯洪池C水尺(旁收南科管理局)", "DivID": "CCTV2089", "DivSrc": "https://fmg.wra.gov.tw/FMGP/SingeView?sn=2089&ft=C&ht=0", "OpenName": "L7滯洪池C水尺(南科管理局提供)", "OpenSrc": null, "provider": "水利署自建站" }, "geometry": { "type": "Point", "coordinates": [ 120.280194, 22.824528 ] } },
{ "type": "Feature", "properties": { "name": "天文宮社區(旁收南科管理局)", "DivID": "CCTV2090", "DivSrc": "https://fmg.wra.gov.tw/FMGP/SingeView?sn=2090&ft=C&ht=0", "OpenName": "天文宮社區(南科管理局提供)", "OpenSrc": "http://220.130.84.75/cgi-bin/live.cgi?cam=17&stream=1&mute=1&osd=0", "provider": "水利署自建站" }, "geometry": { "type": "Point", "coordinates": [ 120.240472, 22.812694 ] } },
{ "type": "Feature", "properties": { "name": "過溝中排_外水", "DivID": "CCTV2431", "DivSrc": "https://fmg.wra.gov.tw/FMGP/SingeView?sn=2431&ft=C&ht=0", "OpenName": "過溝中排", "OpenSrc": "https://fmg.wra.gov.tw/fmgp/ccd_proxy?sn=2431", "provider": "水利署自建站" }, "geometry": { "type": "Point", "coordinates": [ 120.179325, 23.406538 ] } },
{ "type": "Feature", "properties": { "name": "義布橋_上游抽水管", "DivID": "CCTV2432", "DivSrc": "https://fmg.wra.gov.tw/FMGP/SingeView?sn=2432&ft=C&ht=0", "OpenName": "義布橋", "OpenSrc": "https://fmg.wra.gov.tw/fmgp/ccd_proxy?sn=2432", "provider": "水利署自建站" }, "geometry": { "type": "Point", "coordinates": [ 120.1990805, 23.3687472 ] } },
{ "type": "Feature", "properties": { "name": "烏來福德宮(水尺)", "DivID": "CCTV6286", "DivSrc": "https://fmg.wra.gov.tw/FMGP/SingeView?sn=6286&ft=C&ht=0", "OpenName": "烏來福德宮", "OpenSrc": "https://fmg.wra.gov.tw/fmgp/ccd_proxy?sn=6286", "provider": "水利署自建站" }, "geometry": { "type": "Point", "coordinates": [ 121.550073, 24.866282 ] } },
{ "type": "Feature", "properties": { "name": "二層行橋(固)", "DivID": "CCTV6287", "DivSrc": "https://fmg.wra.gov.tw/FMGP/SingeView?sn=6287&ft=C&ht=0", "OpenName": "二層行橋", "OpenSrc": "https://fmg.wra.gov.tw/fmgp/ccd_proxy?sn=6287", "provider": "水利署自建站" }, "geometry": { "type": "Point", "coordinates": [ 120.22956, 22.917736 ] } },
{ "type": "Feature", "properties": { "name": "寶二水庫水尺(介接北水局)", "DivID": "CCTV6300", "DivSrc": "https://fmg.wra.gov.tw/FMGP/SingeView?sn=6300&ft=C&ht=0", "OpenName": "寶二水庫(介接北水局)", "OpenSrc": null, "provider": "水利署自建站" }, "geometry": { "type": "Point", "coordinates": [ 121.042705, 24.717547000847201 ] } },
{ "type": "Feature", "properties": { "name": "海山橋(水尺)", "DivID": "CCTV6301", "DivSrc": "https://fmg.wra.gov.tw/FMGP/SingeView?sn=6301&ft=C&ht=0", "OpenName": "海山橋", "OpenSrc": "https://fmg.wra.gov.tw/fmgp/ccd_proxy?sn=6301", "provider": "水利署自建站" }, "geometry": { "type": "Point", "coordinates": [ 121.415883, 24.926467 ] } },
{ "type": "Feature", "properties": { "name": "海山橋(旋轉)", "DivID": "CCTV6302", "DivSrc": "https://fmg.wra.gov.tw/FMGP/SingeView?sn=6302&ft=C&ht=0", "OpenName": "海山橋", "OpenSrc": "https://fmg.wra.gov.tw/fmgp/ccd_proxy?sn=6302", "provider": "水利署自建站" }, "geometry": { "type": "Point", "coordinates": [ 121.415883, 24.926467 ] } },
{ "type": "Feature", "properties": { "name": "湖山水庫_水尺", "DivID": "CCTV6305", "DivSrc": "https://fmg.wra.gov.tw/FMGP/SingeView?sn=6305&ft=C&ht=0", "OpenName": "湖山水庫", "OpenSrc": null, "provider": "水利署自建站" }, "geometry": { "type": "Point", "coordinates": [ 120.620836913161995, 23.685923185566601 ] } },
{ "type": "Feature", "properties": { "name": "湖山水庫_新梅林橋", "DivID": "CCTV6306", "DivSrc": "https://fmg.wra.gov.tw/FMGP/SingeView?sn=6306&ft=C&ht=0", "OpenName": "湖山水庫", "OpenSrc": null, "provider": "水利署自建站" }, "geometry": { "type": "Point", "coordinates": [ 120.620836913161995, 23.685923185566601 ] } },
{ "type": "Feature", "properties": { "name": "湖山水庫_取水口渠道", "DivID": "CCTV6307", "DivSrc": "https://fmg.wra.gov.tw/FMGP/SingeView?sn=6307&ft=C&ht=0", "OpenName": "湖山水庫", "OpenSrc": null, "provider": "水利署自建站" }, "geometry": { "type": "Point", "coordinates": [ 120.620836913161995, 23.685923185566601 ] } },
{ "type": "Feature", "properties": { "name": "鯉魚潭水庫_遊艇碼頭", "DivID": "CCTV6308", "DivSrc": "https://fmg.wra.gov.tw/FMGP/SingeView?sn=6308&ft=C&ht=0", "OpenName": "鯉魚潭水庫", "OpenSrc": null, "provider": "水利署自建站" }, "geometry": { "type": "Point", "coordinates": [ 120.773472197827004, 24.336766974931098 ] } },
{ "type": "Feature", "properties": { "name": "鯉魚潭水庫_水尺", "DivID": "CCTV6309", "DivSrc": "https://fmg.wra.gov.tw/FMGP/SingeView?sn=6309&ft=C&ht=0", "OpenName": "鯉魚潭水庫", "OpenSrc": null, "provider": "水利署自建站" }, "geometry": { "type": "Point", "coordinates": [ 120.773472197827004, 24.336766974931098 ] } },
{ "type": "Feature", "properties": { "name": "鯉魚潭水庫_溢洪道", "DivID": "CCTV6310", "DivSrc": "https://fmg.wra.gov.tw/FMGP/SingeView?sn=6310&ft=C&ht=0", "OpenName": "鯉魚潭水庫", "OpenSrc": null, "provider": "水利署自建站" }, "geometry": { "type": "Point", "coordinates": [ 120.773472197827004, 24.336766974931098 ] } },
{ "type": "Feature", "properties": { "name": "牡丹水庫庫區(介接南水局)", "DivID": "CCTV6314", "DivSrc": "https://fmg.wra.gov.tw/FMGP/SingeView?sn=6314&ft=C&ht=0", "OpenName": "牡丹水庫管理中心(介接南水局)", "OpenSrc": null, "provider": "水利署自建站" }, "geometry": { "type": "Point", "coordinates": [ 120.77965, 22.13389 ] } },
{ "type": "Feature", "properties": { "name": "高屏溪攔河堰(介接南水局)", "DivID": "CCTV6315", "DivSrc": "https://fmg.wra.gov.tw/FMGP/SingeView?sn=6315&ft=C&ht=0", "OpenName": "高屏溪攔河堰管理中心(介接南水局)", "OpenSrc": null, "provider": "水利署自建站" }, "geometry": { "type": "Point", "coordinates": [ 120.435688684189998, 22.6870584224182 ] } },
{ "type": "Feature", "properties": { "name": "甲仙攔河堰(介接南水局)", "DivID": "CCTV6316", "DivSrc": "https://fmg.wra.gov.tw/FMGP/SingeView?sn=6316&ft=C&ht=0", "OpenName": "甲仙攔河堰管理中心(介接南水局)", "OpenSrc": null, "provider": "水利署自建站" }, "geometry": { "type": "Point", "coordinates": [ 120.582568, 23.084693 ] } },
{ "type": "Feature", "properties": { "name": "牡丹水庫溢洪道(介接南水局)", "DivID": "CCTV6352", "DivSrc": "https://fmg.wra.gov.tw/FMGP/SingeView?sn=6352&ft=C&ht=0", "OpenName": "牡丹水庫管理中心(介接南水局)", "OpenSrc": null, "provider": "水利署自建站" }, "geometry": { "type": "Point", "coordinates": [ 120.77965, 22.13389 ] } },
{ "type": "Feature", "properties": { "name": "阿公店水庫溢洪管出水口(介接南水局)", "DivID": "CCTV6353", "DivSrc": "https://fmg.wra.gov.tw/FMGP/SingeView?sn=6353&ft=C&ht=0", "OpenName": "阿公店水庫管理中心", "OpenSrc": null, "provider": "水利署自建站" }, "geometry": { "type": "Point", "coordinates": [ 120.344079, 22.810905 ] } },
{ "type": "Feature", "properties": { "name": "秀巒崩塌地1(水保局提供)", "DivID": "CCTV6642", "DivSrc": "https://fmg.wra.gov.tw/FMGP/SingeView?sn=6642&ft=C&ht=0", "OpenName": "秀巒崩塌地1(水保局提供)", "OpenSrc": null, "provider": "水利署自建站" }, "geometry": { "type": "Point", "coordinates": [ 121.285929, 24.617147 ] } },
{ "type": "Feature", "properties": { "name": "秀巒崩塌地2(水保局提供)", "DivID": "CCTV6643", "DivSrc": "https://fmg.wra.gov.tw/FMGP/SingeView?sn=6643&ft=C&ht=0", "OpenName": "秀巒崩塌地2(水保局提供)", "OpenSrc": null, "provider": "水利署自建站" }, "geometry": { "type": "Point", "coordinates": [ 121.284786125516007, 24.616381979910699 ] } },
{ "type": "Feature", "properties": { "name": "上坪堰_堰堤(介接北水局)", "DivID": "CCTV6941", "DivSrc": "https://fmg.wra.gov.tw/FMGP/SingeView?sn=6941&ft=C&ht=0", "OpenName": "上坪堰(介接北水局)", "OpenSrc": null, "provider": "水利署自建站" }, "geometry": { "type": "Point", "coordinates": [ 121.103443, 24.690536 ] } },
{ "type": "Feature", "properties": { "name": "上坪堰_水尺(介接北水局)", "DivID": "CCTV6942", "DivSrc": "https://fmg.wra.gov.tw/FMGP/SingeView?sn=6942&ft=C&ht=0", "OpenName": "上坪堰(介接北水局)", "OpenSrc": null, "provider": "水利署自建站" }, "geometry": { "type": "Point", "coordinates": [ 121.103443, 24.690536 ] } },
{ "type": "Feature", "properties": { "name": "隆恩堰_堰堤1(介接北水局)", "DivID": "CCTV6943", "DivSrc": "https://fmg.wra.gov.tw/FMGP/SingeView?sn=6943&ft=C&ht=0", "OpenName": "隆恩堰(介接北水局)", "OpenSrc": null, "provider": "水利署自建站" }, "geometry": { "type": "Point", "coordinates": [ 121.036581250875997, 24.796181261159202 ] } },
{ "type": "Feature", "properties": { "name": "隆恩堰_堰堤2(介接北水局)", "DivID": "CCTV6944", "DivSrc": "https://fmg.wra.gov.tw/FMGP/SingeView?sn=6944&ft=C&ht=0", "OpenName": "隆恩堰(介接北水局)", "OpenSrc": null, "provider": "水利署自建站" }, "geometry": { "type": "Point", "coordinates": [ 121.036581250875997, 24.796181261159202 ] } },
{ "type": "Feature", "properties": { "name": "隆恩堰_堰堤3(介接北水局)", "DivID": "CCTV6945", "DivSrc": "https://fmg.wra.gov.tw/FMGP/SingeView?sn=6945&ft=C&ht=0", "OpenName": "隆恩堰(介接北水局)", "OpenSrc": null, "provider": "水利署自建站" }, "geometry": { "type": "Point", "coordinates": [ 121.036581250875997, 24.796181261159202 ] } },
{ "type": "Feature", "properties": { "name": "寶二水庫_溢洪道(介接北水局)", "DivID": "CCTV6946", "DivSrc": "https://fmg.wra.gov.tw/FMGP/SingeView?sn=6946&ft=C&ht=0", "OpenName": "寶二水庫(介接北水局)", "OpenSrc": null, "provider": "水利署自建站" }, "geometry": { "type": "Point", "coordinates": [ 121.042705, 24.717547000847201 ] } },
{ "type": "Feature", "properties": { "name": "安順寮臨時站", "DivID": "CCTV7457", "DivSrc": "https://fmg.wra.gov.tw/FMGP/SingeView?sn=7457&ft=C&ht=0", "OpenName": "鹽水溪與安順寮排水匯流處", "OpenSrc": "https://fmg.wra.gov.tw/fmgp/ccd_proxy?sn=7457", "provider": "水利署自建站" }, "geometry": { "type": "Point", "coordinates": [ 120.225436, 23.04311 ] } },
{ "type": "Feature", "properties": { "name": "蘭陽溪流域溪洲排水門", "DivID": "CCTV7696", "DivSrc": "https://fmg.wra.gov.tw/FMGP/SingeView?sn=7696&ft=C&ht=0", "OpenName": "蘭陽溪流域溪洲排水門", "OpenSrc": "https://video3.focusit.com.tw/giscam/player/index.html?uuid=1fd8106e-6e4f-40aa-858f-71eb3bfce137&node_id=1", "provider": "水利署自建站" }, "geometry": { "type": "Point", "coordinates": [ 121.7611866, 24.718946 ] } },
{ "type": "Feature", "properties": { "name": "樂樂溪客城堤防(玉長大橋)(九河局提供)", "DivID": "CCTV7697", "DivSrc": "https://fmg.wra.gov.tw/FMGP/SingeView?sn=7697&ft=C&ht=0", "OpenName": "樂樂溪客城堤防(玉長大橋)", "OpenSrc": "https://shinobi.irmp.tw/9b1Ktdkw85om7fS3dnSXJ0hdvUyWQv/mjpeg/QlKxHZIV6N/6hCUoRYmP7", "provider": "水利署自建站" }, "geometry": { "type": "Point", "coordinates": [ 121.4155, 23.66363 ] } },
{ "type": "Feature", "properties": { "name": "大龍橋(九河局提供)", "DivID": "CCTV7698", "DivSrc": "https://fmg.wra.gov.tw/FMGP/SingeView?sn=7698&ft=C&ht=0", "OpenName": "大龍橋", "OpenSrc": "https://shinobi.irmp.tw/9b1Ktdkw85om7fS3dnSXJ0hdvUyWQv/mjpeg/QlKxHZIV6N/3ZQTkn1x8Y", "provider": "水利署自建站" }, "geometry": { "type": "Point", "coordinates": [ 121.1965, 23.15668 ] } },
{ "type": "Feature", "properties": { "name": "新城海堤(九河局提供)", "DivID": "CCTV7699", "DivSrc": "https://fmg.wra.gov.tw/FMGP/SingeView?sn=7699&ft=C&ht=0", "OpenName": "新城海堤", "OpenSrc": "https://shinobi.irmp.tw/9b1Ktdkw85om7fS3dnSXJ0hdvUyWQv/mjpeg/QlKxHZIV6N/4CCsrAqyur", "provider": "水利署自建站" }, "geometry": { "type": "Point", "coordinates": [ 121.6579, 24.12879 ] } },
{ "type": "Feature", "properties": { "name": "崙天大橋(九河局提供)", "DivID": "CCTV7700", "DivSrc": "https://fmg.wra.gov.tw/FMGP/SingeView?sn=7700&ft=C&ht=0", "OpenName": "崙天大橋", "OpenSrc": "https://shinobi.irmp.tw/9b1Ktdkw85om7fS3dnSXJ0hdvUyWQv/mjpeg/QlKxHZIV6N/Wj8TKhSNkB", "provider": "水利署自建站" }, "geometry": { "type": "Point", "coordinates": [ 121.2703, 23.21799 ] } },
{ "type": "Feature", "properties": { "name": "箭瑛大橋(九河局提供)", "DivID": "CCTV7701", "DivSrc": "https://fmg.wra.gov.tw/FMGP/SingeView?sn=7701&ft=C&ht=0", "OpenName": "箭瑛大橋", "OpenSrc": "https://shinobi.irmp.tw/9b1Ktdkw85om7fS3dnSXJ0hdvUyWQv/mjpeg/QlKxHZIV6N/ycv29xnFMd", "provider": "水利署自建站" }, "geometry": { "type": "Point", "coordinates": [ 121.4895, 23.73213 ] } },
{ "type": "Feature", "properties": { "name": "萬里溪橋(九河局提供)", "DivID": "CCTV7702", "DivSrc": "https://fmg.wra.gov.tw/FMGP/SingeView?sn=7702&ft=C&ht=0", "OpenName": "萬里溪橋", "OpenSrc": "https://shinobi.irmp.tw/9b1Ktdkw85om7fS3dnSXJ0hdvUyWQv/mjpeg/QlKxHZIV6N/KVYiHwllmK", "provider": "水利署自建站" }, "geometry": { "type": "Point", "coordinates": [ 121.4274, 23.72061 ] } },
{ "type": "Feature", "properties": { "name": "馬太鞍溪橋(九河局提供)", "DivID": "CCTV7703", "DivSrc": "https://fmg.wra.gov.tw/FMGP/SingeView?sn=7703&ft=C&ht=0", "OpenName": "馬太鞍溪橋", "OpenSrc": "https://shinobi.irmp.tw/9b1Ktdkw85om7fS3dnSXJ0hdvUyWQv/mjpeg/QlKxHZIV6N/khuSUwE8Yd", "provider": "水利署自建站" }, "geometry": { "type": "Point", "coordinates": [ 121.4092, 23.68854 ] } },
{ "type": "Feature", "properties": { "name": "文田橋(九河局提供)", "DivID": "CCTV7704", "DivSrc": "https://fmg.wra.gov.tw/FMGP/SingeView?sn=7704&ft=C&ht=0", "OpenName": "文田橋", "OpenSrc": "https://shinobi.irmp.tw/9b1Ktdkw85om7fS3dnSXJ0hdvUyWQv/mjpeg/QlKxHZIV6N/cdxdESaqhK", "provider": "水利署自建站" }, "geometry": { "type": "Point", "coordinates": [ 121.22278, 23.13765 ] } },
{ "type": "Feature", "properties": { "name": "汐止江北橋(十河局提供)", "DivID": "CCTV7705", "DivSrc": "https://fmg.wra.gov.tw/FMGP/SingeView?sn=7705&ft=C&ht=0", "OpenName": "汐止江北橋", "OpenSrc": null, "provider": "水利署自建站" }, "geometry": { "type": "Point", "coordinates": [ 121.655472, 25.068135 ] } },
{ "type": "Feature", "properties": { "name": "猴硐國小", "DivID": "CCTV8004", "DivSrc": "https://fmg.wra.gov.tw/FMGP/SingeView?sn=8004&ft=C&ht=0", "OpenName": "猴硐國小", "OpenSrc": "https://fmg.wra.gov.tw/fmgp/ccd_proxy?sn=8004", "provider": "水利署自建站" }, "geometry": { "type": "Point", "coordinates": [ 121.833309337265007, 25.096082039975801 ] } },
{ "type": "Feature", "properties": { "name": "江長抽水站", "DivID": "CCTV1", "DivSrc": "https://fmg.wra.gov.tw/FMGP/SingeView?sn=1&ft=C&ht=0", "OpenName": "江長抽水站", "OpenSrc": "https://fmg.wra.gov.tw/fmgp/ccd_proxy?sn=1", "provider": "水利署自建站" }, "geometry": { "type": "Point", "coordinates": [ 121.6633416, 25.07752 ] } },
{ "type": "Feature", "properties": { "name": "大洲一號橋(旋轉鏡頭)", "DivID": "CCTV2", "DivSrc": "https://fmg.wra.gov.tw/FMGP/SingeView?sn=2&ft=C&ht=0", "OpenName": "大洲一號橋", "OpenSrc": "https://fmg.wra.gov.tw/fmgp/ccd_proxy?sn=2", "provider": "水利署自建站" }, "geometry": { "type": "Point", "coordinates": [ 120.246447, 23.06126 ] } },
{ "type": "Feature", "properties": { "name": "日新護岸(旋轉)(介接六河局)", "DivID": "CCTV1839", "DivSrc": "https://fmg.wra.gov.tw/FMGP/SingeView?sn=1839&ft=C&ht=0", "OpenName": "日新護岸(介接六河局)", "OpenSrc": null, "provider": "水利署自建站" }, "geometry": { "type": "Point", "coordinates": [ 120.345919, 23.151675 ] } },
{ "type": "Feature", "properties": { "name": "馬鞍壩_2(旁收台電)", "DivID": "CCTV708", "DivSrc": "https://fmg.wra.gov.tw/FMGP/SingeView?sn=708&ft=C&ht=0", "OpenName": "馬鞍壩(台電提供)", "OpenSrc": "https://fmg.wra.gov.tw/fmgp/ccd_proxy?sn=708", "provider": "水利署自建站" }, "geometry": { "type": "Point", "coordinates": [ 120.91346, 24.18513 ] } },
{ "type": "Feature", "properties": { "name": "五股坑溪-成泰路(縣市政府提供)", "DivID": "CCTV5358", "DivSrc": "https://fmg.wra.gov.tw/FMGB/carousel.html?CCTV_SN=5358&SINGLE_URL=new.jpg&TIMES=-1", "OpenName": "五股坑溪-成泰路(市政府提供)", "OpenSrc": "https://fmg.wra.gov.tw/FMGP/SingeView?sn=5358&ft=C&ht=0", "provider": "縣市政府水情" }, "geometry": { "type": "Point", "coordinates": [ 121.438305555555004, 25.0870833333333 ] } },
{ "type": "Feature", "properties": { "name": "福德坑溪-民權街(南橋)(縣市政府提供)", "DivID": "CCTV5360", "DivSrc": "https://fmg.wra.gov.tw/FMGB/carousel.html?CCTV_SN=5360&SINGLE_URL=new.jpg&TIMES=-1", "OpenName": "福德坑溪-民權街(南橋)(市政府提供)", "OpenSrc": "https://fmg.wra.gov.tw/FMGP/SingeView?sn=5360&ft=C&ht=0", "provider": "縣市政府水情" }, "geometry": { "type": "Point", "coordinates": [ 121.368805555554999, 24.931611111111099 ] } },
{ "type": "Feature", "properties": { "name": "五重溪-柴埕路(縣市政府提供)", "DivID": "CCTV5361", "DivSrc": "https://fmg.wra.gov.tw/FMGB/carousel.html?CCTV_SN=5361&SINGLE_URL=new.jpg&TIMES=-1", "OpenName": "五重溪-柴埕路(市政府提供)", "OpenSrc": "https://fmg.wra.gov.tw/FMGP/SingeView?sn=5361&ft=C&ht=0", "provider": "縣市政府水情" }, "geometry": { "type": "Point", "coordinates": [ 121.504835, 24.958267 ] } },
{ "type": "Feature", "properties": { "name": "五重溪永豐圳匯流口(縣市政府提供)", "DivID": "CCTV5362", "DivSrc": "https://fmg.wra.gov.tw/FMGB/carousel.html?CCTV_SN=5362&SINGLE_URL=new.jpg&TIMES=-1", "OpenName": "五重溪永豐圳匯流口", "OpenSrc": "https://fmg.wra.gov.tw/FMGP/SingeView?sn=5362&ft=C&ht=0", "provider": "縣市政府水情" }, "geometry": { "type": "Point", "coordinates": [ 121.515972222222004, 24.967555555555499 ] } },
{ "type": "Feature", "properties": { "name": "五重溪碧安二橋(縣市政府提供)", "DivID": "CCTV5363", "DivSrc": "https://fmg.wra.gov.tw/FMGB/carousel.html?CCTV_SN=5363&SINGLE_URL=new.jpg&TIMES=-1", "OpenName": "五重溪碧安二橋", "OpenSrc": "https://fmg.wra.gov.tw/FMGP/SingeView?sn=5363&ft=C&ht=0", "provider": "縣市政府水情" }, "geometry": { "type": "Point", "coordinates": [ 121.516777777776994, 24.9745833333333 ] } },
{ "type": "Feature", "properties": { "name": "柑林埤溝金城路二段(縣市政府提供)", "DivID": "CCTV5365", "DivSrc": "https://fmg.wra.gov.tw/FMGB/carousel.html?CCTV_SN=5365&SINGLE_URL=new.jpg&TIMES=-1", "OpenName": "柑林埤溝金城路二段", "OpenSrc": "https://fmg.wra.gov.tw/FMGP/SingeView?sn=5365&ft=C&ht=0", "provider": "縣市政府水情" }, "geometry": { "type": "Point", "coordinates": [ 121.45625, 24.9798333333333 ] } },
{ "type": "Feature", "properties": { "name": "柑林埤溝長城橋(縣市政府提供)", "DivID": "CCTV5366", "DivSrc": "https://fmg.wra.gov.tw/FMGB/carousel.html?CCTV_SN=5366&SINGLE_URL=new.jpg&TIMES=-1", "OpenName": "柑林埤溝長城橋", "OpenSrc": "https://fmg.wra.gov.tw/FMGP/SingeView?sn=5366&ft=C&ht=0", "provider": "縣市政府水情" }, "geometry": { "type": "Point", "coordinates": [ 121.45775, 24.976777777777698 ] } },
{ "type": "Feature", "properties": { "name": "五重溪安豐橋(縣市政府提供)", "DivID": "CCTV5367", "DivSrc": "https://fmg.wra.gov.tw/FMGB/carousel.html?CCTV_SN=5367&SINGLE_URL=new.jpg&TIMES=-1", "OpenName": "五重溪安豐橋", "OpenSrc": "https://fmg.wra.gov.tw/FMGP/SingeView?sn=5367&ft=C&ht=0", "provider": "縣市政府水情" }, "geometry": { "type": "Point", "coordinates": [ 121.500638888888005, 24.958277777777699 ] } },
{ "type": "Feature", "properties": { "name": "大武崙工業區路口(縣市政府提供)", "DivID": "CCTV5381", "DivSrc": "https://fmg.wra.gov.tw/FMGB/carousel.html?CCTV_SN=5381&SINGLE_URL=new.jpg&TIMES=-1", "OpenName": "大武崙工業區路口", "OpenSrc": "https://wavegis-nvr.wavegis.com.tw/cgi-bin/live.cgi?cam=7", "provider": "縣市政府水情" }, "geometry": { "type": "Point", "coordinates": [ 121.69974, 25.148839 ] } },
{ "type": "Feature", "properties": { "name": "滿庭芳站(新街溪)(縣市政府提供)", "DivID": "CCTV5120", "DivSrc": "https://fmg.wra.gov.tw/FMGB/carousel.html?CCTV_SN=5120&SINGLE_URL=new.jpg&TIMES=-1", "OpenName": "滿庭芳站(新街溪)", "OpenSrc": "https://fmg.wra.gov.tw/FMGP/SingeView?sn=5120&ft=C&ht=0", "provider": "縣市政府水情" }, "geometry": { "type": "Point", "coordinates": [ 121.23086, 24.93114 ] } },
{ "type": "Feature", "properties": { "name": "環中路站(新街溪)(縣市政府提供)", "DivID": "CCTV5122", "DivSrc": "https://fmg.wra.gov.tw/FMGB/carousel.html?CCTV_SN=5122&SINGLE_URL=new.jpg&TIMES=-1", "OpenName": "環中路站(新街溪)", "OpenSrc": "https://fmg.wra.gov.tw/FMGP/SingeView?sn=5122&ft=C&ht=0", "provider": "縣市政府水情" }, "geometry": { "type": "Point", "coordinates": [ 121.22501, 24.9415 ] } },
{ "type": "Feature", "properties": { "name": "龍慈路(縣市政府提供)", "DivID": "CCTV5123", "DivSrc": "https://fmg.wra.gov.tw/FMGB/carousel.html?CCTV_SN=5123&SINGLE_URL=new.jpg&TIMES=-1", "OpenName": "龍慈路", "OpenSrc": "https://fmg.wra.gov.tw/FMGP/SingeView?sn=5123&ft=C&ht=0", "provider": "縣市政府水情" }, "geometry": { "type": "Point", "coordinates": [ 121.23918, 24.9347 ] } },
{ "type": "Feature", "properties": { "name": "龍岡路(縣市政府提供)", "DivID": "CCTV5124", "DivSrc": "https://fmg.wra.gov.tw/FMGB/carousel.html?CCTV_SN=5124&SINGLE_URL=new.jpg&TIMES=-1", "OpenName": "龍岡路", "OpenSrc": "https://fmg.wra.gov.tw/FMGP/SingeView?sn=5124&ft=C&ht=0", "provider": "縣市政府水情" }, "geometry": { "type": "Point", "coordinates": [ 121.23273, 24.93262 ] } },
{ "type": "Feature", "properties": { "name": "新富橋(縣市政府提供)", "DivID": "CCTV5482", "DivSrc": "https://fmg.wra.gov.tw/FMGB/carousel.html?CCTV_SN=5482&SINGLE_URL=new.jpg&TIMES=-1", "OpenName": "新富橋", "OpenSrc": "https://fmg.wra.gov.tw/FMGP/SingeView?sn=5482&ft=C&ht=0", "provider": "縣市政府水情" }, "geometry": { "type": "Point", "coordinates": [ 121.2077, 24.93213 ] } },
{ "type": "Feature", "properties": { "name": "崁子腳橋(縣市政府提供)", "DivID": "CCTV5483", "DivSrc": "https://fmg.wra.gov.tw/FMGB/carousel.html?CCTV_SN=5483&SINGLE_URL=new.jpg&TIMES=-1", "OpenName": "崁子腳橋", "OpenSrc": "https://fmg.wra.gov.tw/FMGP/SingeView?sn=5483&ft=C&ht=0", "provider": "縣市政府水情" }, "geometry": { "type": "Point", "coordinates": [ 121.26474, 24.97484 ] } },